{"type":"FeatureCollection","crs":{"type":"name","properties":{"name":"EPSG:4326"}},"features":[{"type":"Feature","id":13649,"geometry":{"type":"Point","coordinates":[-119.862246000152,36.7795909999384]},"properties":{"ObjectID":13649,"StopID":"5","StopCode":"5","StopName":"NE BRAWLEY - SHIELDS","StopDescription":"N BRAWLEY AVE & W FOUNTAIN WAY","StopLatitiude":36.779591,"StopLongtitude":-119.862246,"WheelchairBoarding":"0"}},{"type":"Feature","id":13650,"geometry":{"type":"Point","coordinates":[-119.862218000406,36.8081450002878]},"properties":{"ObjectID":13650,"StopID":"6","StopCode":"6","StopName":"SE SHAW - BRAWLEY","StopDescription":"W SHAW AVE & N BRAWLEY AVE","StopLatitiude":36.808145,"StopLongtitude":-119.862218,"WheelchairBoarding":"0"}},{"type":"Feature","id":13651,"geometry":{"type":"Point","coordinates":[-119.826817999952,36.8082499999835]},"properties":{"ObjectID":13651,"StopID":"7","StopCode":"7","StopName":"SW SHAW - WEST","StopDescription":"W SHAW AVE & N WEST AVE","StopLatitiude":36.80825,"StopLongtitude":-119.826818,"WheelchairBoarding":"0"}},{"type":"Feature","id":13652,"geometry":{"type":"Point","coordinates":[-119.79007199962,36.8084979999444]},"properties":{"ObjectID":13652,"StopID":"8","StopCode":"8","StopName":"SE SHAW - BLACKSTONE","StopDescription":"E SHAW AVE & N BLACKSTONE AVE","StopLatitiude":36.808498,"StopLongtitude":-119.790072,"WheelchairBoarding":"0"}},{"type":"Feature","id":13653,"geometry":{"type":"Point","coordinates":[-119.771947999819,36.8085370001621]},"properties":{"ObjectID":13653,"StopID":"9","StopCode":"9","StopName":"SE SHAW - FIRST","StopDescription":"E SHAW AVE & N FIRST ST","StopLatitiude":36.808537,"StopLongtitude":-119.771948,"WheelchairBoarding":"0"}},{"type":"Feature","id":13654,"geometry":{"type":"Point","coordinates":[-119.75360800016,36.80856500016]},"properties":{"ObjectID":13654,"StopID":"10","StopCode":"10","StopName":"SHAW - CEDAR","StopDescription":"E SHAW AVE & N CEDAR AVE","StopLatitiude":36.808565,"StopLongtitude":-119.753608,"WheelchairBoarding":"0"}},{"type":"Feature","id":13655,"geometry":{"type":"Point","coordinates":[-119.727404000077,36.8079890001959]},"properties":{"ObjectID":13655,"StopID":"11","StopCode":"11","StopName":"SW WILLOW - SHAW","StopDescription":null,"StopLatitiude":36.807989,"StopLongtitude":-119.727404,"WheelchairBoarding":"0"}},{"type":"Feature","id":13656,"geometry":{"type":"Point","coordinates":[-119.755123999706,36.8086530001865]},"properties":{"ObjectID":13656,"StopID":"13","StopCode":"13","StopName":"NW SHAW - CEDAR","StopDescription":"E SHAW AVE & N CEDAR AVE","StopLatitiude":36.808653,"StopLongtitude":-119.755124,"WheelchairBoarding":"0"}},{"type":"Feature","id":13657,"geometry":{"type":"Point","coordinates":[-119.772728000383,36.8085900000275]},"properties":{"ObjectID":13657,"StopID":"14","StopCode":"14","StopName":"NW SHAW - FIRST","StopDescription":"E SHAW AVE & E FRONTAGE RD N","StopLatitiude":36.80859,"StopLongtitude":-119.772728,"WheelchairBoarding":"0"}},{"type":"Feature","id":13658,"geometry":{"type":"Point","coordinates":[-119.790908999451,36.8085410001262]},"properties":{"ObjectID":13658,"StopID":"15","StopCode":"15","StopName":"NW SHAW - BLACKSTONE","StopDescription":"W SHAW AVE & N BLACKSTONE AVE","StopLatitiude":36.808541,"StopLongtitude":-119.790909,"WheelchairBoarding":"0"}},{"type":"Feature","id":13659,"geometry":{"type":"Point","coordinates":[-119.826841000217,36.8083030003786]},"properties":{"ObjectID":13659,"StopID":"16","StopCode":"16","StopName":"NW SHAW - WEST","StopDescription":"W SHAW AVE & N WEST AVE","StopLatitiude":36.808303,"StopLongtitude":-119.826841,"WheelchairBoarding":"0"}},{"type":"Feature","id":13660,"geometry":{"type":"Point","coordinates":[-119.863034000472,36.8084199997568]},"properties":{"ObjectID":13660,"StopID":"17","StopCode":"17","StopName":"NW SHAW - BRAWLEY","StopDescription":"W SHAW AVE & N SONORA LN","StopLatitiude":36.80842,"StopLongtitude":-119.863034,"WheelchairBoarding":"0"}},{"type":"Feature","id":13661,"geometry":{"type":"Point","coordinates":[-119.862542000264,36.8103130000175]},"properties":{"ObjectID":13661,"StopID":"28","StopCode":"28","StopName":"BRAWLEY - WALMART","StopDescription":"N BRAWLEY AVE & W SHAW AVE","StopLatitiude":36.810313,"StopLongtitude":-119.862542,"WheelchairBoarding":"0"}},{"type":"Feature","id":13662,"geometry":{"type":"Point","coordinates":[-119.844618000465,36.8078210003114]},"properties":{"ObjectID":13662,"StopID":"29","StopCode":"29","StopName":"SW MARKS - SHAW","StopDescription":null,"StopLatitiude":36.807821,"StopLongtitude":-119.844618,"WheelchairBoarding":"0"}},{"type":"Feature","id":13663,"geometry":{"type":"Point","coordinates":[-119.835619000337,36.778951000101]},"properties":{"ObjectID":13663,"StopID":"30","StopCode":"30","StopName":"SW HUGHES - SHIELDS","StopDescription":null,"StopLatitiude":36.778951,"StopLongtitude":-119.835619,"WheelchairBoarding":"0"}},{"type":"Feature","id":13664,"geometry":{"type":"Point","coordinates":[-119.807722999843,36.7650129999602]},"properties":{"ObjectID":13664,"StopID":"38","StopCode":"38","StopName":"NE MCKINLEY - PALM","StopDescription":null,"StopLatitiude":36.765013,"StopLongtitude":-119.807723,"WheelchairBoarding":"0"}},{"type":"Feature","id":13665,"geometry":{"type":"Point","coordinates":[-119.835419000553,36.7788169998217]},"properties":{"ObjectID":13665,"StopID":"39","StopCode":"39","StopName":"SE HUGHES - SHIELDS","StopDescription":null,"StopLatitiude":36.778817,"StopLongtitude":-119.835419,"WheelchairBoarding":"0"}},{"type":"Feature","id":13666,"geometry":{"type":"Point","coordinates":[-119.845027000211,36.8084440000187]},"properties":{"ObjectID":13666,"StopID":"40","StopCode":"40","StopName":"NW SHAW - MARKS","StopDescription":null,"StopLatitiude":36.808444,"StopLongtitude":-119.845027,"WheelchairBoarding":"0"}},{"type":"Feature","id":13667,"geometry":{"type":"Point","coordinates":[-119.826521000249,36.8217330002068]},"properties":{"ObjectID":13667,"StopID":"42","StopCode":"42","StopName":"SW WEST - BULLARD","StopDescription":null,"StopLatitiude":36.821733,"StopLongtitude":-119.826521,"WheelchairBoarding":"0"}},{"type":"Feature","id":13668,"geometry":{"type":"Point","coordinates":[-119.826513999676,36.8071859997983]},"properties":{"ObjectID":13668,"StopID":"43","StopCode":"43","StopName":"SW WEST - SHAW","StopDescription":null,"StopLatitiude":36.807186,"StopLongtitude":-119.826514,"WheelchairBoarding":"0"}},{"type":"Feature","id":13669,"geometry":{"type":"Point","coordinates":[-119.826714000018,36.778981999903]},"properties":{"ObjectID":13669,"StopID":"44","StopCode":"44","StopName":"SW WEST - SHIELDS","StopDescription":null,"StopLatitiude":36.778982,"StopLongtitude":-119.826714,"WheelchairBoarding":"0"}},{"type":"Feature","id":13670,"geometry":{"type":"Point","coordinates":[-119.798463000166,36.757615999936]},"properties":{"ObjectID":13670,"StopID":"45","StopCode":"45","StopName":"SE OLIVE - VAN NESS","StopDescription":null,"StopLatitiude":36.757616,"StopLongtitude":-119.798463,"WheelchairBoarding":"0"}},{"type":"Feature","id":13671,"geometry":{"type":"Point","coordinates":[-119.754117999817,36.7430810002077]},"properties":{"ObjectID":13671,"StopID":"48","StopCode":"48","StopName":"TULARE - CEDAR","StopDescription":null,"StopLatitiude":36.743081,"StopLongtitude":-119.754118,"WheelchairBoarding":"0"}},{"type":"Feature","id":13672,"geometry":{"type":"Point","coordinates":[-119.71788900045,36.7430760003019]},"properties":{"ObjectID":13672,"StopID":"49","StopCode":"49","StopName":"TULARE - PEACH","StopDescription":null,"StopLatitiude":36.743076,"StopLongtitude":-119.717889,"WheelchairBoarding":"0"}},{"type":"Feature","id":13673,"geometry":{"type":"Point","coordinates":[-119.677656999935,36.7307989999111]},"properties":{"ObjectID":13673,"StopID":"50","StopCode":"50","StopName":"BURGAN - BUTLER","StopDescription":null,"StopLatitiude":36.730799,"StopLongtitude":-119.677657,"WheelchairBoarding":"0"}},{"type":"Feature","id":13674,"geometry":{"type":"Point","coordinates":[-119.697492000508,36.7359850003731]},"properties":{"ObjectID":13674,"StopID":"51","StopCode":"51","StopName":"KINGS CANYON - CLOVIS","StopDescription":"E KINGS CANYON RD & S PHILLIP AVE","StopLatitiude":36.735985,"StopLongtitude":-119.697492,"WheelchairBoarding":"0"}},{"type":"Feature","id":13675,"geometry":{"type":"Point","coordinates":[-119.791532000193,36.8521499995872]},"properties":{"ObjectID":13675,"StopID":"61","StopCode":"61","StopName":"NEES - BLACKSTONE","StopDescription":null,"StopLatitiude":36.85215,"StopLongtitude":-119.791532,"WheelchairBoarding":"0"}},{"type":"Feature","id":13676,"geometry":{"type":"Point","coordinates":[-119.808473000506,36.8366269996655]},"properties":{"ObjectID":13676,"StopID":"62","StopCode":"62","StopName":"PALM - HERNDON","StopDescription":null,"StopLatitiude":36.836627,"StopLongtitude":-119.808473,"WheelchairBoarding":"0"}},{"type":"Feature","id":13677,"geometry":{"type":"Point","coordinates":[-119.808768000223,36.7791099998098]},"properties":{"ObjectID":13677,"StopID":"63","StopCode":"63","StopName":"PALM - SHIELDS","StopDescription":null,"StopLatitiude":36.77911,"StopLongtitude":-119.808768,"WheelchairBoarding":"0"}},{"type":"Feature","id":13678,"geometry":{"type":"Point","coordinates":[-119.719794000268,36.7692300002204]},"properties":{"ObjectID":13678,"StopID":"65","StopCode":"65","StopName":"FRESNO YOSEMITE INTL - WB","StopDescription":"N TERRY COOPER WAY & UNNAMED ALY","StopLatitiude":36.76923,"StopLongtitude":-119.719794,"WheelchairBoarding":"0"}},{"type":"Feature","id":13679,"geometry":{"type":"Point","coordinates":[-119.827028000513,36.7720850000182]},"properties":{"ObjectID":13679,"StopID":"67","StopCode":"67","StopName":"CLINTON - WEST","StopDescription":null,"StopLatitiude":36.772085,"StopLongtitude":-119.827028,"WheelchairBoarding":"0"}},{"type":"Feature","id":13680,"geometry":{"type":"Point","coordinates":[-119.861826999974,36.779162999982]},"properties":{"ObjectID":13680,"StopID":"68","StopCode":"68","StopName":"SHIELDS - BRAWLEY","StopDescription":"W SHIELDS AVE & N BRAWLEY AVE","StopLatitiude":36.779163,"StopLongtitude":-119.861827,"WheelchairBoarding":"0"}},{"type":"Feature","id":13681,"geometry":{"type":"Point","coordinates":[-119.826109999923,36.7719239996438]},"properties":{"ObjectID":13681,"StopID":"70","StopCode":"70","StopName":"CLINTON - WEST","StopDescription":null,"StopLatitiude":36.771924,"StopLongtitude":-119.82611,"WheelchairBoarding":"0"}},{"type":"Feature","id":13682,"geometry":{"type":"Point","coordinates":[-119.79026999961,36.7833629998006]},"properties":{"ObjectID":13682,"StopID":"71","StopCode":"71","StopName":"MANCHESTER TRANSIT CENTER EB 41","StopDescription":"PRIVATE & E FEDORA AVE","StopLatitiude":36.783363,"StopLongtitude":-119.79027,"WheelchairBoarding":"0"}},{"type":"Feature","id":13683,"geometry":{"type":"Point","coordinates":[-119.722372999528,36.7699599997646]},"properties":{"ObjectID":13683,"StopID":"72","StopCode":"72","StopName":"FRESNO YOSEMITE INTL - EB","StopDescription":"E CLINTON WAY & UNNAMED ALY","StopLatitiude":36.76996,"StopLongtitude":-119.722373,"WheelchairBoarding":"0"}},{"type":"Feature","id":13684,"geometry":{"type":"Point","coordinates":[-119.736883000288,36.7287480003563]},"properties":{"ObjectID":13684,"StopID":"73","StopCode":"73","StopName":"BUTLER - CHESTNUT","StopDescription":null,"StopLatitiude":36.728748,"StopLongtitude":-119.736883,"WheelchairBoarding":"0"}},{"type":"Feature","id":13685,"geometry":{"type":"Point","coordinates":[-119.808578999686,36.7800369996823]},"properties":{"ObjectID":13685,"StopID":"76","StopCode":"76","StopName":"NE PALM - SHIELDS","StopDescription":null,"StopLatitiude":36.780037,"StopLongtitude":-119.808579,"WheelchairBoarding":"0"}},{"type":"Feature","id":13686,"geometry":{"type":"Point","coordinates":[-119.807852999785,36.8368400001041]},"properties":{"ObjectID":13686,"StopID":"77","StopCode":"77","StopName":"SE HERNDON - PALM","StopDescription":"W HERNDON AVE & N INGRAM AVE","StopLatitiude":36.83684,"StopLongtitude":-119.807853,"WheelchairBoarding":"0"}},{"type":"Feature","id":13687,"geometry":{"type":"Point","coordinates":[-119.696575999897,36.8085350000143]},"properties":{"ObjectID":13687,"StopID":"79","StopCode":"79","StopName":"SHAWCOLE W/B","StopDescription":"SHAW AVE & RAILROAD AVE","StopLatitiude":36.808535,"StopLongtitude":-119.696576,"WheelchairBoarding":"0"}},{"type":"Feature","id":13688,"geometry":{"type":"Point","coordinates":[-119.772455999908,36.8092269998817]},"properties":{"ObjectID":13688,"StopID":"82","StopCode":"82","StopName":"FIRST/SHAW S/B","StopDescription":null,"StopLatitiude":36.809227,"StopLongtitude":-119.772456,"WheelchairBoarding":"0"}},{"type":"Feature","id":13689,"geometry":{"type":"Point","coordinates":[-119.79028599957,36.7836669997456]},"properties":{"ObjectID":13689,"StopID":"83","StopCode":"83","StopName":"MANCHESTER TRANSIT CENTER","StopDescription":null,"StopLatitiude":36.783667,"StopLongtitude":-119.790286,"WheelchairBoarding":"0"}},{"type":"Feature","id":13690,"geometry":{"type":"Point","coordinates":[-119.753706999758,36.7357589999409]},"properties":{"ObjectID":13690,"StopID":"84","StopCode":"84","StopName":"CEDAR STATION","StopDescription":null,"StopLatitiude":36.735759,"StopLongtitude":-119.753707,"WheelchairBoarding":"0"}},{"type":"Feature","id":13691,"geometry":{"type":"Point","coordinates":[-119.73658500026,36.7282390003394]},"properties":{"ObjectID":13691,"StopID":"85","StopCode":"85","StopName":"CHESTNUT - BUTLER","StopDescription":null,"StopLatitiude":36.728239,"StopLongtitude":-119.736585,"WheelchairBoarding":"0"}},{"type":"Feature","id":13692,"geometry":{"type":"Point","coordinates":[-119.754184000412,36.7359779997947]},"properties":{"ObjectID":13692,"StopID":"88","StopCode":"88","StopName":"CEDAR STATION","StopDescription":null,"StopLatitiude":36.735978,"StopLongtitude":-119.754184,"WheelchairBoarding":"0"}},{"type":"Feature","id":13693,"geometry":{"type":"Point","coordinates":[-119.790386999652,36.7831139999142]},"properties":{"ObjectID":13693,"StopID":"89","StopCode":"89","StopName":"MANCHESTER TRANSIT CENTER","StopDescription":null,"StopLatitiude":36.783114,"StopLongtitude":-119.790387,"WheelchairBoarding":"0"}},{"type":"Feature","id":13694,"geometry":{"type":"Point","coordinates":[-119.772184999997,36.8071869999768]},"properties":{"ObjectID":13694,"StopID":"90","StopCode":"90","StopName":"FIRST - SHAW NB","StopDescription":null,"StopLatitiude":36.807187,"StopLongtitude":-119.772185,"WheelchairBoarding":"0"}},{"type":"Feature","id":13695,"geometry":{"type":"Point","coordinates":[-119.790265999761,36.8371219998993]},"properties":{"ObjectID":13695,"StopID":"95","StopCode":"95","StopName":"HERNDON STATION","StopDescription":"N BLACKSTONE AVE & E MAGILL AVE","StopLatitiude":36.837122,"StopLongtitude":-119.790266,"WheelchairBoarding":"0"}},{"type":"Feature","id":13696,"geometry":{"type":"Point","coordinates":[-119.790662000269,36.8080119998416]},"properties":{"ObjectID":13696,"StopID":"96","StopCode":"96","StopName":"SHAW STATION","StopDescription":null,"StopLatitiude":36.808012,"StopLongtitude":-119.790662,"WheelchairBoarding":"0"}},{"type":"Feature","id":13697,"geometry":{"type":"Point","coordinates":[-119.781416999789,36.8361949995584]},"properties":{"ObjectID":13697,"StopID":"106","StopCode":"106","StopName":"FRESNO - HERNDON","StopDescription":null,"StopLatitiude":36.836195,"StopLongtitude":-119.781417,"WheelchairBoarding":"0"}},{"type":"Feature","id":13698,"geometry":{"type":"Point","coordinates":[-119.781545999995,36.8077650001157]},"properties":{"ObjectID":13698,"StopID":"107","StopCode":"107","StopName":"FRESNO - SHAW","StopDescription":null,"StopLatitiude":36.807765,"StopLongtitude":-119.781546,"WheelchairBoarding":"0"}},{"type":"Feature","id":13699,"geometry":{"type":"Point","coordinates":[-119.781649999962,36.7718890004166]},"properties":{"ObjectID":13699,"StopID":"108","StopCode":"108","StopName":"SW FRESNO - CLINTON","StopDescription":null,"StopLatitiude":36.771889,"StopLongtitude":-119.78165,"WheelchairBoarding":"0"}},{"type":"Feature","id":13700,"geometry":{"type":"Point","coordinates":[-119.799956000432,36.7064669998986]},"properties":{"ObjectID":13700,"StopID":"111","StopCode":"111","StopName":"MLK - JENSEN","StopDescription":null,"StopLatitiude":36.706467,"StopLongtitude":-119.799956,"WheelchairBoarding":"0"}},{"type":"Feature","id":13701,"geometry":{"type":"Point","coordinates":[-119.791736000447,36.6923510002711]},"properties":{"ObjectID":13701,"StopID":"112","StopCode":"112","StopName":"NORTH - ELM","StopDescription":"W NORTH AVE & E NORTH AVE","StopLatitiude":36.692351,"StopLongtitude":-119.791736,"WheelchairBoarding":"0"}},{"type":"Feature","id":13702,"geometry":{"type":"Point","coordinates":[-119.799760000141,36.7073479996168]},"properties":{"ObjectID":13702,"StopID":"114","StopCode":"114","StopName":"MLK - JENSEN","StopDescription":null,"StopLatitiude":36.707348,"StopLongtitude":-119.79976,"WheelchairBoarding":"0"}},{"type":"Feature","id":13703,"geometry":{"type":"Point","coordinates":[-119.781463000192,36.7726219996775]},"properties":{"ObjectID":13703,"StopID":"117","StopCode":"117","StopName":"FRESNO - CLINTON","StopDescription":null,"StopLatitiude":36.772622,"StopLongtitude":-119.781463,"WheelchairBoarding":"0"}},{"type":"Feature","id":13704,"geometry":{"type":"Point","coordinates":[-119.781273000355,36.8075940001127]},"properties":{"ObjectID":13704,"StopID":"118","StopCode":"118","StopName":"FRESNO - SHAW","StopDescription":null,"StopLatitiude":36.807594,"StopLongtitude":-119.781273,"WheelchairBoarding":"0"}},{"type":"Feature","id":13705,"geometry":{"type":"Point","coordinates":[-119.781079999954,36.8382199996518]},"properties":{"ObjectID":13705,"StopID":"119","StopCode":"119","StopName":"FRESNO - HERNDON","StopDescription":null,"StopLatitiude":36.83822,"StopLongtitude":-119.78108,"WheelchairBoarding":"0"}},{"type":"Feature","id":13706,"geometry":{"type":"Point","coordinates":[-119.819129000289,36.7502220004316]},"properties":{"ObjectID":13706,"StopID":"122","StopCode":"122","StopName":"BELMONT - DELNO","StopDescription":null,"StopLatitiude":36.750222,"StopLongtitude":-119.819129,"WheelchairBoarding":"0"}},{"type":"Feature","id":13707,"geometry":{"type":"Point","coordinates":[-119.789685000475,36.7502750000784]},"properties":{"ObjectID":13707,"StopID":"123","StopCode":"123","StopName":"BELMONT - ABBY","StopDescription":null,"StopLatitiude":36.750275,"StopLongtitude":-119.789685,"WheelchairBoarding":"0"}},{"type":"Feature","id":13708,"geometry":{"type":"Point","coordinates":[-119.771893999717,36.7503590000319]},"properties":{"ObjectID":13708,"StopID":"124","StopCode":"124","StopName":"BELMONT - FIRST","StopDescription":null,"StopLatitiude":36.750359,"StopLongtitude":-119.771894,"WheelchairBoarding":"0"}},{"type":"Feature","id":13709,"geometry":{"type":"Point","coordinates":[-119.745493999692,36.7497149999349]},"properties":{"ObjectID":13709,"StopID":"125","StopCode":"125","StopName":"MAPLE - BELMONT","StopDescription":null,"StopLatitiude":36.749715,"StopLongtitude":-119.745494,"WheelchairBoarding":"0"}},{"type":"Feature","id":13710,"geometry":{"type":"Point","coordinates":[-119.745604999772,36.7350910002822]},"properties":{"ObjectID":13710,"StopID":"126","StopCode":"126","StopName":"MAPLE - KINGS CANYON - EL MONTE","StopDescription":null,"StopLatitiude":36.735091,"StopLongtitude":-119.745605,"WheelchairBoarding":"0"}},{"type":"Feature","id":13711,"geometry":{"type":"Point","coordinates":[-119.745439999524,36.729938999913]},"properties":{"ObjectID":13711,"StopID":"127","StopCode":"127","StopName":"MAPLE - BUTLER","StopDescription":null,"StopLatitiude":36.729939,"StopLongtitude":-119.74544,"WheelchairBoarding":"0"}},{"type":"Feature","id":13712,"geometry":{"type":"Point","coordinates":[-119.745786000386,36.7137579999348]},"properties":{"ObjectID":13712,"StopID":"128","StopCode":"128","StopName":"CHURCH - MAPLE","StopDescription":null,"StopLatitiude":36.713758,"StopLongtitude":-119.745786,"WheelchairBoarding":"0"}},{"type":"Feature","id":13713,"geometry":{"type":"Point","coordinates":[-119.7454009999,36.7363210000615]},"properties":{"ObjectID":13713,"StopID":"130","StopCode":"130","StopName":"MAPLE - KINGS CANYON","StopDescription":null,"StopLatitiude":36.736321,"StopLongtitude":-119.745401,"WheelchairBoarding":"0"}},{"type":"Feature","id":13714,"geometry":{"type":"Point","coordinates":[-119.745908999869,36.7505730004385]},"properties":{"ObjectID":13714,"StopID":"131","StopCode":"131","StopName":"BELMONT - MAPLE","StopDescription":null,"StopLatitiude":36.750573,"StopLongtitude":-119.745909,"WheelchairBoarding":"0"}},{"type":"Feature","id":13715,"geometry":{"type":"Point","coordinates":[-119.772916999825,36.750557999744]},"properties":{"ObjectID":13715,"StopID":"132","StopCode":"132","StopName":"BELMONT - FIRST","StopDescription":null,"StopLatitiude":36.750558,"StopLongtitude":-119.772917,"WheelchairBoarding":"0"}},{"type":"Feature","id":13716,"geometry":{"type":"Point","coordinates":[-119.789750999556,36.7504919999984]},"properties":{"ObjectID":13716,"StopID":"133","StopCode":"133","StopName":"BELMONT - ABBY","StopDescription":null,"StopLatitiude":36.750492,"StopLongtitude":-119.789751,"WheelchairBoarding":"0"}},{"type":"Feature","id":13717,"geometry":{"type":"Point","coordinates":[-119.772411000359,36.8225539996236]},"properties":{"ObjectID":13717,"StopID":"136","StopCode":"136","StopName":"FIRST - BULLARD","StopDescription":null,"StopLatitiude":36.822554,"StopLongtitude":-119.772411,"WheelchairBoarding":"0"}},{"type":"Feature","id":13718,"geometry":{"type":"Point","coordinates":[-119.772684999668,36.7805550003162]},"properties":{"ObjectID":13718,"StopID":"137","StopCode":"137","StopName":"FIRST - SHIELDS","StopDescription":null,"StopLatitiude":36.780555,"StopLongtitude":-119.772685,"WheelchairBoarding":"0"}},{"type":"Feature","id":13719,"geometry":{"type":"Point","coordinates":[-119.773774000485,36.7359319998106]},"properties":{"ObjectID":13719,"StopID":"138","StopCode":"138","StopName":"VENTURA - FIRST","StopDescription":"E VENTURA ST & S FIRST ST","StopLatitiude":36.735932,"StopLongtitude":-119.773774,"WheelchairBoarding":"0"}},{"type":"Feature","id":13720,"geometry":{"type":"Point","coordinates":[-119.782183999777,36.7069130001596]},"properties":{"ObjectID":13720,"StopID":"140","StopCode":"140","StopName":"NW JENSEN - CHERRY","StopDescription":"E JENSEN AVE & S CHERRY AVE","StopLatitiude":36.706913,"StopLongtitude":-119.782184,"WheelchairBoarding":"0"}},{"type":"Feature","id":13721,"geometry":{"type":"Point","coordinates":[-119.79065499952,36.7108149998902]},"properties":{"ObjectID":13721,"StopID":"142","StopCode":"142","StopName":"ELM - GROVE","StopDescription":null,"StopLatitiude":36.710815,"StopLongtitude":-119.790655,"WheelchairBoarding":"0"}},{"type":"Feature","id":13722,"geometry":{"type":"Point","coordinates":[-119.772484999759,36.7363219997297]},"properties":{"ObjectID":13722,"StopID":"143","StopCode":"143","StopName":"FIRST - VENTURA","StopDescription":null,"StopLatitiude":36.736322,"StopLongtitude":-119.772485,"WheelchairBoarding":"0"}},{"type":"Feature","id":13723,"geometry":{"type":"Point","coordinates":[-119.772459000057,36.7804200001777]},"properties":{"ObjectID":13723,"StopID":"144","StopCode":"144","StopName":"FIRST - SHIELDS","StopDescription":null,"StopLatitiude":36.78042,"StopLongtitude":-119.772459,"WheelchairBoarding":"0"}},{"type":"Feature","id":13724,"geometry":{"type":"Point","coordinates":[-119.772152999963,36.8234639996768]},"properties":{"ObjectID":13724,"StopID":"145","StopCode":"145","StopName":"FIRST - BULLARD","StopDescription":null,"StopLatitiude":36.823464,"StopLongtitude":-119.772153,"WheelchairBoarding":"0"}},{"type":"Feature","id":13725,"geometry":{"type":"Point","coordinates":[-119.765298000375,36.8370349998069]},"properties":{"ObjectID":13725,"StopID":"146","StopCode":"146","StopName":"SAINT AGNES HOSPITAL  BUS STOP","StopDescription":"E FRONTAGE RD S & PRIVATE DR","StopLatitiude":36.837035,"StopLongtitude":-119.765298,"WheelchairBoarding":"0"}},{"type":"Feature","id":13726,"geometry":{"type":"Point","coordinates":[-119.808913000003,36.7575860003133]},"properties":{"ObjectID":13726,"StopID":"149","StopCode":"149","StopName":"SW OLIVE - PALM","StopDescription":null,"StopLatitiude":36.757586,"StopLongtitude":-119.808913,"WheelchairBoarding":"0"}},{"type":"Feature","id":13727,"geometry":{"type":"Point","coordinates":[-119.789024999842,36.7571880002693]},"properties":{"ObjectID":13727,"StopID":"150","StopCode":"150","StopName":"SE OLIVE - ABBY","StopDescription":null,"StopLatitiude":36.757188,"StopLongtitude":-119.789025,"WheelchairBoarding":"0"}},{"type":"Feature","id":13728,"geometry":{"type":"Point","coordinates":[-119.753864000373,36.7576289997289]},"properties":{"ObjectID":13728,"StopID":"152","StopCode":"152","StopName":"SE OLIVE - CEDAR","StopDescription":null,"StopLatitiude":36.757629,"StopLongtitude":-119.753864,"WheelchairBoarding":"0"}},{"type":"Feature","id":13729,"geometry":{"type":"Point","coordinates":[-119.735736999848,36.7575889998114]},"properties":{"ObjectID":13729,"StopID":"153","StopCode":"153","StopName":"SE OLIVE - CHESTNUT","StopDescription":null,"StopLatitiude":36.757589,"StopLongtitude":-119.735737,"WheelchairBoarding":"0"}},{"type":"Feature","id":13730,"geometry":{"type":"Point","coordinates":[-119.717948000472,36.75741800011]},"properties":{"ObjectID":13730,"StopID":"154","StopCode":"154","StopName":"SE OLIVE - PEACH","StopDescription":null,"StopLatitiude":36.757418,"StopLongtitude":-119.717948,"WheelchairBoarding":"0"}},{"type":"Feature","id":13731,"geometry":{"type":"Point","coordinates":[-119.700680999824,36.7505490003962]},"properties":{"ObjectID":13731,"StopID":"155","StopCode":"155","StopName":"NW BELMONT - CLOVIS","StopDescription":null,"StopLatitiude":36.750549,"StopLongtitude":-119.700681,"WheelchairBoarding":"0"}},{"type":"Feature","id":13732,"geometry":{"type":"Point","coordinates":[-119.719682999675,36.7575630001178]},"properties":{"ObjectID":13732,"StopID":"157","StopCode":"157","StopName":"NW OLIVE - PEACH","StopDescription":null,"StopLatitiude":36.757563,"StopLongtitude":-119.719683,"WheelchairBoarding":"0"}},{"type":"Feature","id":13733,"geometry":{"type":"Point","coordinates":[-119.7371069996,36.7578069996507]},"properties":{"ObjectID":13733,"StopID":"158","StopCode":"158","StopName":"NW OLIVE - CHESTNUT","StopDescription":null,"StopLatitiude":36.757807,"StopLongtitude":-119.737107,"WheelchairBoarding":"0"}},{"type":"Feature","id":13734,"geometry":{"type":"Point","coordinates":[-119.755313999634,36.7578149995973]},"properties":{"ObjectID":13734,"StopID":"159","StopCode":"159","StopName":"NW OLIVE - CEDAR","StopDescription":null,"StopLatitiude":36.757815,"StopLongtitude":-119.755314,"WheelchairBoarding":"0"}},{"type":"Feature","id":13735,"geometry":{"type":"Point","coordinates":[-119.773111000497,36.7577969998132]},"properties":{"ObjectID":13735,"StopID":"160","StopCode":"160","StopName":"NW OLIVE - FIRST","StopDescription":null,"StopLatitiude":36.757797,"StopLongtitude":-119.773111,"WheelchairBoarding":"0"}},{"type":"Feature","id":13736,"geometry":{"type":"Point","coordinates":[-119.791089000342,36.7577710003547]},"properties":{"ObjectID":13736,"StopID":"161","StopCode":"161","StopName":"NW OLIVE - BLACKSTONE","StopDescription":"E OLIVE AVE & N CALAVERAS ST","StopLatitiude":36.757771,"StopLongtitude":-119.791089,"WheelchairBoarding":"0"}},{"type":"Feature","id":13737,"geometry":{"type":"Point","coordinates":[-119.808917999899,36.7576760001414]},"properties":{"ObjectID":13737,"StopID":"162","StopCode":"162","StopName":"NW OLIVE - PALM","StopDescription":"E OLIVE AVE & N SAFFORD AVE","StopLatitiude":36.757676,"StopLongtitude":-119.808918,"WheelchairBoarding":"0"}},{"type":"Feature","id":13738,"geometry":{"type":"Point","coordinates":[-119.790524000143,36.8473059999379]},"properties":{"ObjectID":13738,"StopID":"164","StopCode":"164","StopName":"NE BLACKSTONE - EL PASO","StopDescription":"N BLACKSTONE AVE","StopLatitiude":36.847306,"StopLongtitude":-119.790524,"WheelchairBoarding":"0"}},{"type":"Feature","id":13739,"geometry":{"type":"Point","coordinates":[-119.754218000034,36.8082429995581]},"properties":{"ObjectID":13739,"StopID":"167","StopCode":"167","StopName":"SW CEDAR - SHAW","StopDescription":"N CEDAR AVE & E SIERRA MADRE AVE","StopLatitiude":36.808243,"StopLongtitude":-119.754218,"WheelchairBoarding":"0"}},{"type":"Feature","id":13740,"geometry":{"type":"Point","coordinates":[-119.754400999949,36.779840999927]},"properties":{"ObjectID":13740,"StopID":"168","StopCode":"168","StopName":"NW CEDAR - SHIELDS","StopDescription":"N CEDAR AVE & E FOUNTAIN WAY","StopLatitiude":36.779841,"StopLongtitude":-119.754401,"WheelchairBoarding":"0"}},{"type":"Feature","id":13741,"geometry":{"type":"Point","coordinates":[-119.754581000294,36.7355590001556]},"properties":{"ObjectID":13741,"StopID":"169","StopCode":"169","StopName":"SW CEDAR - VENTURA","StopDescription":"S CEDAR AVE & E KINGS CANYON RD","StopLatitiude":36.735559,"StopLongtitude":-119.754581,"WheelchairBoarding":"0"}},{"type":"Feature","id":13742,"geometry":{"type":"Point","coordinates":[-119.754717999886,36.70713000004]},"properties":{"ObjectID":13742,"StopID":"170","StopCode":"170","StopName":"NW CEDAR - JENSEN","StopDescription":"S CEDAR AVE & E JENSEN AVE","StopLatitiude":36.70713,"StopLongtitude":-119.754718,"WheelchairBoarding":"0"}},{"type":"Feature","id":13743,"geometry":{"type":"Point","coordinates":[-119.804289000446,36.7144799996667]},"properties":{"ObjectID":13743,"StopID":"171","StopCode":"171","StopName":"HINTON CENTER","StopDescription":"S FAIRVIEW AVE & E CHURCH AVE","StopLatitiude":36.71448,"StopLongtitude":-119.804289,"WheelchairBoarding":"0"}},{"type":"Feature","id":13744,"geometry":{"type":"Point","coordinates":[-119.804673000104,36.714158000447]},"properties":{"ObjectID":13744,"StopID":"173","StopCode":"173","StopName":"HINTON CENTER","StopDescription":"E CHURCH AVE & S FAIRVIEW AVE","StopLatitiude":36.714158,"StopLongtitude":-119.804673,"WheelchairBoarding":"0"}},{"type":"Feature","id":13745,"geometry":{"type":"Point","coordinates":[-119.754605000028,36.7072099996044]},"properties":{"ObjectID":13745,"StopID":"174","StopCode":"174","StopName":"NE CEDAR - JENSEN","StopDescription":"S CEDAR AVE & UNNAMED ALY","StopLatitiude":36.70721,"StopLongtitude":-119.754605,"WheelchairBoarding":"0"}},{"type":"Feature","id":13746,"geometry":{"type":"Point","coordinates":[-119.754492000306,36.7362379996587]},"properties":{"ObjectID":13746,"StopID":"175","StopCode":"175","StopName":"NE CEDAR - VENTURA","StopDescription":"S CEDAR AVE & E BALCH AVE","StopLatitiude":36.736238,"StopLongtitude":-119.754492,"WheelchairBoarding":"0"}},{"type":"Feature","id":13747,"geometry":{"type":"Point","coordinates":[-119.754300000447,36.780188999646]},"properties":{"ObjectID":13747,"StopID":"176","StopCode":"176","StopName":"CEDAR - SHIELDS","StopDescription":"N CEDAR AVE & E FOUNTAIN WAY","StopLatitiude":36.780189,"StopLongtitude":-119.7543,"WheelchairBoarding":"0"}},{"type":"Feature","id":13748,"geometry":{"type":"Point","coordinates":[-119.754105999984,36.8089660000892]},"properties":{"ObjectID":13748,"StopID":"177","StopCode":"177","StopName":"NE CEDAR - SHAW","StopDescription":"N CEDAR AVE & E SCOTT AVE","StopLatitiude":36.808966,"StopLongtitude":-119.754106,"WheelchairBoarding":"0"}},{"type":"Feature","id":13749,"geometry":{"type":"Point","coordinates":[-119.754106000494,36.8377510004439]},"properties":{"ObjectID":13749,"StopID":"179","StopCode":"179","StopName":"CEDAR - HERNDON","StopDescription":"N CEDAR AVE & E HERNDON AVE","StopLatitiude":36.837751,"StopLongtitude":-119.754106,"WheelchairBoarding":"0"}},{"type":"Feature","id":13750,"geometry":{"type":"Point","coordinates":[-119.844605999813,36.8077579996968]},"properties":{"ObjectID":13750,"StopID":"181","StopCode":"181","StopName":"MARKS - SHAW","StopDescription":null,"StopLatitiude":36.807758,"StopLongtitude":-119.844606,"WheelchairBoarding":"0"}},{"type":"Feature","id":13751,"geometry":{"type":"Point","coordinates":[-119.825482000021,36.7792169996941]},"properties":{"ObjectID":13751,"StopID":"182","StopCode":"182","StopName":"SE SHIELDS - WEST","StopDescription":null,"StopLatitiude":36.779217,"StopLongtitude":-119.825482,"WheelchairBoarding":"0"}},{"type":"Feature","id":13752,"geometry":{"type":"Point","coordinates":[-119.753275000474,36.7795179995727]},"properties":{"ObjectID":13752,"StopID":"183","StopCode":"183","StopName":"SHIELDS - CEDAR","StopDescription":null,"StopLatitiude":36.779518,"StopLongtitude":-119.753275,"WheelchairBoarding":"0"}},{"type":"Feature","id":13753,"geometry":{"type":"Point","coordinates":[-119.736484999638,36.7724700001833]},"properties":{"ObjectID":13753,"StopID":"184","StopCode":"184","StopName":"CHESTNUT - CLINTON","StopDescription":null,"StopLatitiude":36.77247,"StopLongtitude":-119.736485,"WheelchairBoarding":"0"}},{"type":"Feature","id":13754,"geometry":{"type":"Point","coordinates":[-119.745782999854,36.7137360004419]},"properties":{"ObjectID":13754,"StopID":"186","StopCode":"186","StopName":"MAPLE - CHURCH","StopDescription":null,"StopLatitiude":36.713736,"StopLongtitude":-119.745783,"WheelchairBoarding":"0"}},{"type":"Feature","id":13755,"geometry":{"type":"Point","coordinates":[-119.733648000428,36.6839050004172]},"properties":{"ObjectID":13755,"StopID":"187","StopCode":"187","StopName":"GRAND - HARDING","StopDescription":null,"StopLatitiude":36.683905,"StopLongtitude":-119.733648,"WheelchairBoarding":"0"}},{"type":"Feature","id":13756,"geometry":{"type":"Point","coordinates":[-119.736325000069,36.7293259995531]},"properties":{"ObjectID":13756,"StopID":"189","StopCode":"189","StopName":"CHESTNUT - BUTLER","StopDescription":"S CHESTNUT AVE & E BUTLER AVE","StopLatitiude":36.729326,"StopLongtitude":-119.736325,"WheelchairBoarding":"0"}},{"type":"Feature","id":13757,"geometry":{"type":"Point","coordinates":[-119.73621099959,36.7725649998899]},"properties":{"ObjectID":13757,"StopID":"190","StopCode":"190","StopName":"CHESTNUT - CLINTON","StopDescription":null,"StopLatitiude":36.772565,"StopLongtitude":-119.736211,"WheelchairBoarding":"0"}},{"type":"Feature","id":13758,"geometry":{"type":"Point","coordinates":[-119.753676999523,36.7797319995895]},"properties":{"ObjectID":13758,"StopID":"191","StopCode":"191","StopName":"SHIELDS - CEDAR","StopDescription":null,"StopLatitiude":36.779732,"StopLongtitude":-119.753677,"WheelchairBoarding":"0"}},{"type":"Feature","id":13759,"geometry":{"type":"Point","coordinates":[-119.825977000221,36.7793579996426]},"properties":{"ObjectID":13759,"StopID":"193","StopCode":"193","StopName":"NW SHIELDS - WEST","StopDescription":"W SHIELDS AVE & N CHANNING WAY","StopLatitiude":36.779358,"StopLongtitude":-119.825977,"WheelchairBoarding":"0"}},{"type":"Feature","id":13760,"geometry":{"type":"Point","coordinates":[-119.687574000266,36.7795299997193]},"properties":{"ObjectID":13760,"StopID":"195","StopCode":"195","StopName":"NW SHIELDS - STANFORD","StopDescription":"E SHIELDS AVE & N STANFORD AVE","StopLatitiude":36.77953,"StopLongtitude":-119.687574,"WheelchairBoarding":"0"}},{"type":"Feature","id":13761,"geometry":{"type":"Point","coordinates":[-119.701008999446,36.7932719997047]},"properties":{"ObjectID":13761,"StopID":"196","StopCode":"196","StopName":"NW ASHLAN - CLOVIS","StopDescription":null,"StopLatitiude":36.793272,"StopLongtitude":-119.701009,"WheelchairBoarding":"0"}},{"type":"Feature","id":13762,"geometry":{"type":"Point","coordinates":[-119.755451999561,36.7942489996336]},"properties":{"ObjectID":13762,"StopID":"197","StopCode":"197","StopName":"NW ASHLAN - CEDAR","StopDescription":null,"StopLatitiude":36.794249,"StopLongtitude":-119.755452,"WheelchairBoarding":"0"}},{"type":"Feature","id":13763,"geometry":{"type":"Point","coordinates":[-119.808112999601,36.8376179996934]},"properties":{"ObjectID":13763,"StopID":"201","StopCode":"201","StopName":"PALM - HERNDON","StopDescription":null,"StopLatitiude":36.837618,"StopLongtitude":-119.808113,"WheelchairBoarding":"0"}},{"type":"Feature","id":13764,"geometry":{"type":"Point","coordinates":[-119.878530000169,36.8369120002389]},"properties":{"ObjectID":13764,"StopID":"202","StopCode":"202","StopName":"SE HERNDON - MILBURN","StopDescription":null,"StopLatitiude":36.836912,"StopLongtitude":-119.87853,"WheelchairBoarding":"0"}},{"type":"Feature","id":13765,"geometry":{"type":"Point","coordinates":[-119.753875000471,36.7940470004078]},"properties":{"ObjectID":13765,"StopID":"208","StopCode":"208","StopName":"ASHLAN - CEDAR","StopDescription":null,"StopLatitiude":36.794047,"StopLongtitude":-119.753875,"WheelchairBoarding":"0"}},{"type":"Feature","id":13766,"geometry":{"type":"Point","coordinates":[-119.701080000058,36.7931160000616]},"properties":{"ObjectID":13766,"StopID":"209","StopCode":"209","StopName":"CLOVIS - ASHLAN","StopDescription":null,"StopLatitiude":36.793116,"StopLongtitude":-119.70108,"WheelchairBoarding":"0"}},{"type":"Feature","id":13767,"geometry":{"type":"Point","coordinates":[-119.800031999632,36.8850880000342]},"properties":{"ObjectID":13767,"StopID":"211","StopCode":"211","StopName":"MAULPIN - PECK","StopDescription":null,"StopLatitiude":36.885088,"StopLongtitude":-119.800032,"WheelchairBoarding":"0"}},{"type":"Feature","id":13768,"geometry":{"type":"Point","coordinates":[-119.765710000457,36.8597230001168]},"properties":{"ObjectID":13768,"StopID":"213","StopCode":"213","StopName":"MILLBROOK - TEAGUE","StopDescription":"N MILLBROOK AVE & E TEAGUE AVE","StopLatitiude":36.859723,"StopLongtitude":-119.76571,"WheelchairBoarding":"0"}},{"type":"Feature","id":13769,"geometry":{"type":"Point","coordinates":[-119.764515999929,36.8719710003988]},"properties":{"ObjectID":13769,"StopID":"214","StopCode":"214","StopName":"CHAMPLAIN - PERRIN","StopDescription":null,"StopLatitiude":36.871971,"StopLongtitude":-119.764516,"WheelchairBoarding":"0"}},{"type":"Feature","id":13770,"geometry":{"type":"Point","coordinates":[-119.765875000545,36.8588110001442]},"properties":{"ObjectID":13770,"StopID":"216","StopCode":"216","StopName":"MILLBROOK - TEAGUE","StopDescription":null,"StopLatitiude":36.858811,"StopLongtitude":-119.765875,"WheelchairBoarding":"0"}},{"type":"Feature","id":13771,"geometry":{"type":"Point","coordinates":[-119.862249000286,36.7843220003922]},"properties":{"ObjectID":13771,"StopID":"231","StopCode":"231","StopName":"NE BRAWLEY - FEDORA","StopDescription":"N BRAWLEY AVE & W FEDORA AVE","StopLatitiude":36.784322,"StopLongtitude":-119.862249,"WheelchairBoarding":"0"}},{"type":"Feature","id":13772,"geometry":{"type":"Point","coordinates":[-119.862256999961,36.7868389996398]},"properties":{"ObjectID":13772,"StopID":"232","StopCode":"232","StopName":"NE BRAWLEY - DAKOTA","StopDescription":"N BRAWLEY AVE & W DAKOTA AVE","StopLatitiude":36.786839,"StopLongtitude":-119.862257,"WheelchairBoarding":"0"}},{"type":"Feature","id":13773,"geometry":{"type":"Point","coordinates":[-119.867537000558,36.7936569996331]},"properties":{"ObjectID":13773,"StopID":"234","StopCode":"234","StopName":"NW ASHLAN - PARKWAY","StopDescription":"W ASHLAN AVE & N BLYTHE AVE","StopLatitiude":36.793657,"StopLongtitude":-119.867537,"WheelchairBoarding":"0"}},{"type":"Feature","id":13774,"geometry":{"type":"Point","coordinates":[-119.872060999712,36.7936390000155]},"properties":{"ObjectID":13774,"StopID":"235","StopCode":"235","StopName":"NW ASHLAN - BLYTHE","StopDescription":"W ASHLAN AVE & N MITRE AVE","StopLatitiude":36.793639,"StopLongtitude":-119.872061,"WheelchairBoarding":"0"}},{"type":"Feature","id":13775,"geometry":{"type":"Point","coordinates":[-119.876134000466,36.7937389996409]},"properties":{"ObjectID":13775,"StopID":"236","StopCode":"236","StopName":"NW ASHLAN - MILBURN","StopDescription":"W ASHLAN AVE & FRONTAGE RD","StopLatitiude":36.793739,"StopLongtitude":-119.876134,"WheelchairBoarding":"0"}},{"type":"Feature","id":13776,"geometry":{"type":"Point","coordinates":[-119.880286000368,36.7939979997593]},"properties":{"ObjectID":13776,"StopID":"237","StopCode":"237","StopName":"NE CORNELIA - ASHLAN","StopDescription":"N CORNELIA AVE & W ASHLAN AVE","StopLatitiude":36.793998,"StopLongtitude":-119.880286,"WheelchairBoarding":"0"}},{"type":"Feature","id":13777,"geometry":{"type":"Point","coordinates":[-119.880383999525,36.7963100004488]},"properties":{"ObjectID":13777,"StopID":"238","StopCode":"238","StopName":"NE CORNELIA - SWIFT","StopDescription":"N CORNELIA AVE & W SWIFT AVE","StopLatitiude":36.79631,"StopLongtitude":-119.880384,"WheelchairBoarding":"0"}},{"type":"Feature","id":13778,"geometry":{"type":"Point","coordinates":[-119.880410000516,36.8008350002944]},"properties":{"ObjectID":13778,"StopID":"239","StopCode":"239","StopName":"NE 4488 CORNELIA - DONNER","StopDescription":"N CORNELIA AVE & PRIVATE DR","StopLatitiude":36.800835,"StopLongtitude":-119.88041,"WheelchairBoarding":"0"}},{"type":"Feature","id":13779,"geometry":{"type":"Point","coordinates":[-119.880438000477,36.8025580002593]},"properties":{"ObjectID":13779,"StopID":"240","StopCode":"240","StopName":"NB 4734 CORNELIA - MOBIL PARK","StopDescription":"N CORNELIA AVE & N PARKWAY DR","StopLatitiude":36.802558,"StopLongtitude":-119.880438,"WheelchairBoarding":"0"}},{"type":"Feature","id":13780,"geometry":{"type":"Point","coordinates":[-119.887091000357,36.8063020000986]},"properties":{"ObjectID":13780,"StopID":"241","StopCode":"241","StopName":"NE FAIRMONT - STATE","StopDescription":"W FAIRMONT AVE & N BARCUS AVE","StopLatitiude":36.806302,"StopLongtitude":-119.887091,"WheelchairBoarding":"0"}},{"type":"Feature","id":13781,"geometry":{"type":"Point","coordinates":[-119.88411000054,36.808084000183]},"properties":{"ObjectID":13781,"StopID":"243","StopCode":"243","StopName":"SW SHAW - DALE","StopDescription":"W SHAW AVE & N DALE AVE","StopLatitiude":36.808084,"StopLongtitude":-119.88411,"WheelchairBoarding":"0"}},{"type":"Feature","id":13782,"geometry":{"type":"Point","coordinates":[-119.8795510005,36.8081830000188]},"properties":{"ObjectID":13782,"StopID":"244","StopCode":"244","StopName":"SE SHAW - CORNELIA","StopDescription":"W SHAW AVE & N CORNELIA AVE","StopLatitiude":36.808183,"StopLongtitude":-119.879551,"WheelchairBoarding":"0"}},{"type":"Feature","id":13783,"geometry":{"type":"Point","coordinates":[-119.87199299994,36.808135000116]},"properties":{"ObjectID":13783,"StopID":"245","StopCode":"245","StopName":"SW SHAW - BLYTHE","StopDescription":"W SHAW AVE & W JENNIFER AVE","StopLatitiude":36.808135,"StopLongtitude":-119.871993,"WheelchairBoarding":"0"}},{"type":"Feature","id":13784,"geometry":{"type":"Point","coordinates":[-119.868124000267,36.8082049999524]},"properties":{"ObjectID":13784,"StopID":"246","StopCode":"246","StopName":"SE SHAW - EL CAPITAN","StopDescription":"W SHAW AVE & FRONTAGE RD","StopLatitiude":36.808205,"StopLongtitude":-119.868124,"WheelchairBoarding":"0"}},{"type":"Feature","id":13785,"geometry":{"type":"Point","coordinates":[-119.857703999806,36.8081529999292]},"properties":{"ObjectID":13785,"StopID":"248","StopCode":"248","StopName":"SE SHAW - MARTY","StopDescription":"W SHAW AVE & N MARTY AVE","StopLatitiude":36.808153,"StopLongtitude":-119.857704,"WheelchairBoarding":"0"}},{"type":"Feature","id":13786,"geometry":{"type":"Point","coordinates":[-119.84627800007,36.8082180001872]},"properties":{"ObjectID":13786,"StopID":"249","StopCode":"249","StopName":"3077 W SHAW EB","StopDescription":"W SHAW AVE & N MARKS AVE","StopLatitiude":36.808218,"StopLongtitude":-119.846278,"WheelchairBoarding":"0"}},{"type":"Feature","id":13787,"geometry":{"type":"Point","coordinates":[-119.843008000155,36.8081880003527]},"properties":{"ObjectID":13787,"StopID":"250","StopCode":"250","StopName":"SE SHAW - HOLT","StopDescription":"W SHAW AVE & N MARKS AVE","StopLatitiude":36.808188,"StopLongtitude":-119.843008,"WheelchairBoarding":"0"}},{"type":"Feature","id":13788,"geometry":{"type":"Point","coordinates":[-119.834997999737,36.8082189997629]},"properties":{"ObjectID":13788,"StopID":"251","StopCode":"251","StopName":"SW SHAW - HUGHES","StopDescription":"W SHAW AVE & N HUGHES AVE","StopLatitiude":36.808219,"StopLongtitude":-119.834998,"WheelchairBoarding":"0"}},{"type":"Feature","id":13789,"geometry":{"type":"Point","coordinates":[-119.832338999905,36.8082319996468]},"properties":{"ObjectID":13789,"StopID":"252","StopCode":"252","StopName":"SE SHAW - SEQUOIA","StopDescription":"W SHAW AVE & N CRYSTAL AVE","StopLatitiude":36.808232,"StopLongtitude":-119.832339,"WheelchairBoarding":"0"}},{"type":"Feature","id":13790,"geometry":{"type":"Point","coordinates":[-119.823854000345,36.8082719999865]},"properties":{"ObjectID":13790,"StopID":"255","StopCode":"255","StopName":"SE SHAW - CHANNING","StopDescription":"W SHAW AVE & N CHANNING CT","StopLatitiude":36.808272,"StopLongtitude":-119.823854,"WheelchairBoarding":"0"}},{"type":"Feature","id":13791,"geometry":{"type":"Point","coordinates":[-119.819578000264,36.8082880004252]},"properties":{"ObjectID":13791,"StopID":"256","StopCode":"256","StopName":"SE SHAW - DELNO","StopDescription":"W SHAW AVE & N FRUIT AVE","StopLatitiude":36.808288,"StopLongtitude":-119.819578,"WheelchairBoarding":"0"}},{"type":"Feature","id":13792,"geometry":{"type":"Point","coordinates":[-119.817076999798,36.8082999997359]},"properties":{"ObjectID":13792,"StopID":"257","StopCode":"257","StopName":"SE SHAW - FRUIT","StopDescription":"W SHAW AVE & N ARTHUR AVE","StopLatitiude":36.8083,"StopLongtitude":-119.817077,"WheelchairBoarding":"0"}},{"type":"Feature","id":13793,"geometry":{"type":"Point","coordinates":[-119.812619999449,36.8083340000882]},"properties":{"ObjectID":13793,"StopID":"258","StopCode":"258","StopName":"SE SHAW - THRONE","StopDescription":"W SHAW AVE & N THORNE AVE","StopLatitiude":36.808334,"StopLongtitude":-119.81262,"WheelchairBoarding":"0"}},{"type":"Feature","id":13794,"geometry":{"type":"Point","coordinates":[-119.807721000315,36.8083580001304]},"properties":{"ObjectID":13794,"StopID":"259","StopCode":"259","StopName":"SE SHAW - PALM","StopDescription":"W SHAW AVE & N PALM AVE","StopLatitiude":36.808358,"StopLongtitude":-119.807721,"WheelchairBoarding":"0"}},{"type":"Feature","id":13795,"geometry":{"type":"Point","coordinates":[-119.80344500024,36.8083909997774]},"properties":{"ObjectID":13795,"StopID":"260","StopCode":"260","StopName":"SE SHAW - WISHON","StopDescription":"W SHAW AVE & N PALM AVE","StopLatitiude":36.808391,"StopLongtitude":-119.803445,"WheelchairBoarding":"0"}},{"type":"Feature","id":13796,"geometry":{"type":"Point","coordinates":[-119.798635999838,36.8084239996623]},"properties":{"ObjectID":13796,"StopID":"261","StopCode":"261","StopName":"SE SHAW - MAROA","StopDescription":"W SHAW AVE & N MAROA AVE","StopLatitiude":36.808424,"StopLongtitude":-119.798636,"WheelchairBoarding":"0"}},{"type":"Feature","id":13797,"geometry":{"type":"Point","coordinates":[-119.794608999757,36.8084559999418]},"properties":{"ObjectID":13797,"StopID":"262","StopCode":"262","StopName":"SE SHAW - DEL MAR","StopDescription":"W SHAW AVE & N DEL MAR AVE","StopLatitiude":36.808456,"StopLongtitude":-119.794609,"WheelchairBoarding":"0"}},{"type":"Feature","id":13798,"geometry":{"type":"Point","coordinates":[-119.792233000128,36.8084770001332]},"properties":{"ObjectID":13798,"StopID":"263","StopCode":"263","StopName":"SE SHAW - GLENN","StopDescription":"W SHAW AVE & E SHAW AVE","StopLatitiude":36.808477,"StopLongtitude":-119.792233,"WheelchairBoarding":"0"}},{"type":"Feature","id":13799,"geometry":{"type":"Point","coordinates":[-119.780432999906,36.8085359999268]},"properties":{"ObjectID":13799,"StopID":"265","StopCode":"265","StopName":"SE SHAW - FRESNO","StopDescription":"E SHAW AVE & N FRESNO ST","StopLatitiude":36.808536,"StopLongtitude":-119.780433,"WheelchairBoarding":"0"}},{"type":"Feature","id":13800,"geometry":{"type":"Point","coordinates":[-119.776088000119,36.8085330000307]},"properties":{"ObjectID":13800,"StopID":"266","StopCode":"266","StopName":"SE SHAW - ANGUS","StopDescription":"E SHAW AVE & E FRONTAGE RD N","StopLatitiude":36.808533,"StopLongtitude":-119.776088,"WheelchairBoarding":"0"}},{"type":"Feature","id":13801,"geometry":{"type":"Point","coordinates":[-119.765318000436,36.8085349996987]},"properties":{"ObjectID":13801,"StopID":"268","StopCode":"268","StopName":"SE SHAW - FOURTH","StopDescription":"E SHAW AVE & N SIXTH ST","StopLatitiude":36.808535,"StopLongtitude":-119.765318,"WheelchairBoarding":"0"}},{"type":"Feature","id":13802,"geometry":{"type":"Point","coordinates":[-119.762986999648,36.8085560002167]},"properties":{"ObjectID":13802,"StopID":"269","StopCode":"269","StopName":"SE SHAW - SIXTH","StopDescription":"E SHAW AVE & N SIXTH ST","StopLatitiude":36.808556,"StopLongtitude":-119.762987,"WheelchairBoarding":"0"}},{"type":"Feature","id":13803,"geometry":{"type":"Point","coordinates":[-119.727345000347,36.803248000142]},"properties":{"ObjectID":13803,"StopID":"272","StopCode":"272","StopName":"SW WILLOW - RIALTO","StopDescription":null,"StopLatitiude":36.803248,"StopLongtitude":-119.727345,"WheelchairBoarding":"0"}},{"type":"Feature","id":13804,"geometry":{"type":"Point","coordinates":[-119.727724999473,36.8012590001617]},"properties":{"ObjectID":13804,"StopID":"273","StopCode":"273","StopName":"NW GETTYSBURG - WILLOW","StopDescription":"W GETTYSBURG AVE & WILLOW AVE","StopLatitiude":36.801259,"StopLongtitude":-119.727725,"WheelchairBoarding":"0"}},{"type":"Feature","id":13805,"geometry":{"type":"Point","coordinates":[-119.731980000058,36.8013889996936]},"properties":{"ObjectID":13805,"StopID":"274","StopCode":"274","StopName":"NW GETTYSBURG - WINERY","StopDescription":null,"StopLatitiude":36.801389,"StopLongtitude":-119.73198,"WheelchairBoarding":"0"}},{"type":"Feature","id":13806,"geometry":{"type":"Point","coordinates":[-119.733929999794,36.8013819999762]},"properties":{"ObjectID":13806,"StopID":"275","StopCode":"275","StopName":"4857 E GETTYSBURG WB","StopDescription":null,"StopLatitiude":36.801382,"StopLongtitude":-119.73393,"WheelchairBoarding":"0"}},{"type":"Feature","id":13807,"geometry":{"type":"Point","coordinates":[-119.736810000276,36.8013939997678]},"properties":{"ObjectID":13807,"StopID":"276","StopCode":"276","StopName":"NW GETTYSBURG - CHESTNUT","StopDescription":null,"StopLatitiude":36.801394,"StopLongtitude":-119.73681,"WheelchairBoarding":"0"}},{"type":"Feature","id":13808,"geometry":{"type":"Point","coordinates":[-119.741106999937,36.8014099996272]},"properties":{"ObjectID":13808,"StopID":"277","StopCode":"277","StopName":"NW GETTYSBURG - WOODROW","StopDescription":null,"StopLatitiude":36.80141,"StopLongtitude":-119.741107,"WheelchairBoarding":"0"}},{"type":"Feature","id":13809,"geometry":{"type":"Point","coordinates":[-119.744975999688,36.801423000277]},"properties":{"ObjectID":13809,"StopID":"278","StopCode":"278","StopName":"NE GETTYSBURG - MAPLE","StopDescription":null,"StopLatitiude":36.801423,"StopLongtitude":-119.744976,"WheelchairBoarding":"0"}},{"type":"Feature","id":13810,"geometry":{"type":"Point","coordinates":[-119.745118000398,36.8051099998046]},"properties":{"ObjectID":13810,"StopID":"280","StopCode":"280","StopName":"NE MAPLE - SANTA ANA","StopDescription":"N MAPLE AVE & E ALAMOS AVE","StopLatitiude":36.80511,"StopLongtitude":-119.745118,"WheelchairBoarding":"0"}},{"type":"Feature","id":13811,"geometry":{"type":"Point","coordinates":[-119.745553000332,36.8086079999469]},"properties":{"ObjectID":13811,"StopID":"281","StopCode":"281","StopName":"NW SHAW - MAPLE","StopDescription":"E SHAW AVE & N MAPLE AVE","StopLatitiude":36.808608,"StopLongtitude":-119.745553,"WheelchairBoarding":"0"}},{"type":"Feature","id":13812,"geometry":{"type":"Point","coordinates":[-119.759061000328,36.8086309996751]},"properties":{"ObjectID":13812,"StopID":"282","StopCode":"282","StopName":"NW SHAW - NINTH","StopDescription":"E SHAW AVE & N NINTH ST","StopLatitiude":36.808631,"StopLongtitude":-119.759061,"WheelchairBoarding":"0"}},{"type":"Feature","id":13813,"geometry":{"type":"Point","coordinates":[-119.761403000387,36.8086199998635]},"properties":{"ObjectID":13813,"StopID":"283","StopCode":"283","StopName":"NW SHAW - MILLBROOK","StopDescription":"E SHAW AVE & FRONTAGE RD","StopLatitiude":36.80862,"StopLongtitude":-119.761403,"WheelchairBoarding":"0"}},{"type":"Feature","id":13814,"geometry":{"type":"Point","coordinates":[-119.763676999877,36.8086000003584]},"properties":{"ObjectID":13814,"StopID":"284","StopCode":"284","StopName":"NW SHAW - SIXTH","StopDescription":"E SHAW AVE & N SIXTH ST","StopLatitiude":36.8086,"StopLongtitude":-119.763677,"WheelchairBoarding":"0"}},{"type":"Feature","id":13815,"geometry":{"type":"Point","coordinates":[-119.777016000113,36.8085850002062]},"properties":{"ObjectID":13815,"StopID":"286","StopCode":"286","StopName":"NW SHAW - ANGUS","StopDescription":"E SHAW AVE & N MARIPOSA ST","StopLatitiude":36.808585,"StopLongtitude":-119.777016,"WheelchairBoarding":"0"}},{"type":"Feature","id":13816,"geometry":{"type":"Point","coordinates":[-119.782140999447,36.8085700000552]},"properties":{"ObjectID":13816,"StopID":"287","StopCode":"287","StopName":"NW SHAW - FRESNO","StopDescription":"E SHAW AVE & 41 HWY","StopLatitiude":36.80857,"StopLongtitude":-119.782141,"WheelchairBoarding":"0"}},{"type":"Feature","id":13817,"geometry":{"type":"Point","coordinates":[-119.795298999563,36.8085089997531]},"properties":{"ObjectID":13817,"StopID":"289","StopCode":"289","StopName":"NW SHAW - DEL MAR","StopDescription":"W SHAW AVE & N DEL MAR AVE","StopLatitiude":36.808509,"StopLongtitude":-119.795299,"WheelchairBoarding":"0"}},{"type":"Feature","id":13818,"geometry":{"type":"Point","coordinates":[-119.799733999761,36.8084759995748]},"properties":{"ObjectID":13818,"StopID":"290","StopCode":"290","StopName":"NW SHAW - MAROA","StopDescription":"W SHAW AVE & N MAROA AVE","StopLatitiude":36.808476,"StopLongtitude":-119.799734,"WheelchairBoarding":"0"}},{"type":"Feature","id":13819,"geometry":{"type":"Point","coordinates":[-119.804248000526,36.8084439996845]},"properties":{"ObjectID":13819,"StopID":"291","StopCode":"291","StopName":"NW SHAW - WISHON","StopDescription":"W SHAW AVE & N WISHON CT","StopLatitiude":36.808444,"StopLongtitude":-119.804248,"WheelchairBoarding":"0"}},{"type":"Feature","id":13820,"geometry":{"type":"Point","coordinates":[-119.807167000445,36.8084129998926]},"properties":{"ObjectID":13820,"StopID":"292","StopCode":"292","StopName":"NE SHAW - PALM","StopDescription":"W SHAW AVE & N PALM AVE","StopLatitiude":36.808413,"StopLongtitude":-119.807167,"WheelchairBoarding":"0"}},{"type":"Feature","id":13821,"geometry":{"type":"Point","coordinates":[-119.808919999701,36.8084010001473]},"properties":{"ObjectID":13821,"StopID":"293","StopCode":"293","StopName":"NW SHAW - PALM","StopDescription":"W SHAW AVE & N PALM AVE","StopLatitiude":36.808401,"StopLongtitude":-119.80892,"WheelchairBoarding":"0"}},{"type":"Feature","id":13822,"geometry":{"type":"Point","coordinates":[-119.812122000517,36.8083880001717]},"properties":{"ObjectID":13822,"StopID":"294","StopCode":"294","StopName":"NW SHAW - THORNE","StopDescription":"W SHAW AVE & N THORNE AVE","StopLatitiude":36.808388,"StopLongtitude":-119.812122,"WheelchairBoarding":"0"}},{"type":"Feature","id":13823,"geometry":{"type":"Point","coordinates":[-119.817802000072,36.8083440003643]},"properties":{"ObjectID":13823,"StopID":"295","StopCode":"295","StopName":"NW SHAW - FRUIT","StopDescription":"W SHAW AVE & N FRUIT AVE","StopLatitiude":36.808344,"StopLongtitude":-119.817802,"WheelchairBoarding":"0"}},{"type":"Feature","id":13824,"geometry":{"type":"Point","coordinates":[-119.82221399956,36.8083279997129]},"properties":{"ObjectID":13824,"StopID":"296","StopCode":"296","StopName":"NW SHAW - TEILMAN","StopDescription":"W SHAW AVE & N TEILMAN AVE","StopLatitiude":36.808328,"StopLongtitude":-119.822214,"WheelchairBoarding":"0"}},{"type":"Feature","id":13825,"geometry":{"type":"Point","coordinates":[-119.82457799963,36.8083070004373]},"properties":{"ObjectID":13825,"StopID":"297","StopCode":"297","StopName":"NW SHAW - CHANNING","StopDescription":"W SHAW AVE & N CHANNING CT","StopLatitiude":36.808307,"StopLongtitude":-119.824578,"WheelchairBoarding":"0"}},{"type":"Feature","id":13826,"geometry":{"type":"Point","coordinates":[-119.830008999857,36.8082980003258]},"properties":{"ObjectID":13826,"StopID":"299","StopCode":"299","StopName":"NE SHAW - FORKNER","StopDescription":"W SHAW AVE & N CRYSTAL AVE","StopLatitiude":36.808298,"StopLongtitude":-119.830009,"WheelchairBoarding":"0"}},{"type":"Feature","id":13827,"geometry":{"type":"Point","coordinates":[-119.83303000025,36.8082759997441]},"properties":{"ObjectID":13827,"StopID":"300","StopCode":"300","StopName":"NW SHAW - SEQUOIA","StopDescription":"W SHAW AVE & N SEQUOIA DR","StopLatitiude":36.808276,"StopLongtitude":-119.83303,"WheelchairBoarding":"0"}},{"type":"Feature","id":13828,"geometry":{"type":"Point","coordinates":[-119.835733999685,36.8082799995841]},"properties":{"ObjectID":13828,"StopID":"301","StopCode":"301","StopName":"NW SHAW - HUGHES","StopDescription":"W SHAW AVE & PRIVATE DR","StopLatitiude":36.80828,"StopLongtitude":-119.835734,"WheelchairBoarding":"0"}},{"type":"Feature","id":13829,"geometry":{"type":"Point","coordinates":[-119.838788000363,36.8083110001916]},"properties":{"ObjectID":13829,"StopID":"302","StopCode":"302","StopName":"NW SHAW - SHAW LANE","StopDescription":"W SHAW AVE & W SHAW LN","StopLatitiude":36.808311,"StopLongtitude":-119.838788,"WheelchairBoarding":"0"}},{"type":"Feature","id":13830,"geometry":{"type":"Point","coordinates":[-119.868780999738,36.8082569998665]},"properties":{"ObjectID":13830,"StopID":"304","StopCode":"304","StopName":"NW SHAW - EL CAPITAN","StopDescription":"W SHAW AVE & N EL CAPITAN AVE","StopLatitiude":36.808257,"StopLongtitude":-119.868781,"WheelchairBoarding":"0"}},{"type":"Feature","id":13831,"geometry":{"type":"Point","coordinates":[-119.872118000147,36.8081879997613]},"properties":{"ObjectID":13831,"StopID":"305","StopCode":"305","StopName":"NW SHAW - BLYTHE","StopDescription":"W SHAW AVE & W JENNIFER AVE","StopLatitiude":36.808188,"StopLongtitude":-119.872118,"WheelchairBoarding":"0"}},{"type":"Feature","id":13832,"geometry":{"type":"Point","coordinates":[-119.874290000063,36.8081840003016]},"properties":{"ObjectID":13832,"StopID":"306","StopCode":"306","StopName":"NE SHAW - JENNIFER","StopDescription":"W SHAW AVE & N BLYTHE AVE","StopLatitiude":36.808184,"StopLongtitude":-119.87429,"WheelchairBoarding":"0"}},{"type":"Feature","id":13833,"geometry":{"type":"Point","coordinates":[-119.881055999476,36.8082330003263]},"properties":{"ObjectID":13833,"StopID":"307","StopCode":"307","StopName":"NW SHAW - CORNELIA","StopDescription":"W SHAW AVE & N FORESTIERE AVE","StopLatitiude":36.808233,"StopLongtitude":-119.881056,"WheelchairBoarding":"0"}},{"type":"Feature","id":13834,"geometry":{"type":"Point","coordinates":[-119.884167000189,36.8081379998135]},"properties":{"ObjectID":13834,"StopID":"308","StopCode":"308","StopName":"NW SHAW - DALE","StopDescription":"W SHAW AVE & N DALE AVE","StopLatitiude":36.808138,"StopLongtitude":-119.884167,"WheelchairBoarding":"0"}},{"type":"Feature","id":13835,"geometry":{"type":"Point","coordinates":[-119.886231000186,36.8062499997109]},"properties":{"ObjectID":13835,"StopID":"311","StopCode":"311","StopName":"5347 W FAIRMONT WB","StopDescription":"W FAIRMONT AVE & N BARCUS AVE","StopLatitiude":36.80625,"StopLongtitude":-119.886231,"WheelchairBoarding":"0"}},{"type":"Feature","id":13836,"geometry":{"type":"Point","coordinates":[-119.880518000062,36.7993439995782]},"properties":{"ObjectID":13836,"StopID":"312","StopCode":"312","StopName":"SW CORNELIA - DONNER","StopDescription":"N CORNELIA AVE & PRIVATE DR","StopLatitiude":36.799344,"StopLongtitude":-119.880518,"WheelchairBoarding":"0"}},{"type":"Feature","id":13837,"geometry":{"type":"Point","coordinates":[-119.88045300024,36.796576999633]},"properties":{"ObjectID":13837,"StopID":"313","StopCode":"313","StopName":"NW CORNELIA - SWIFT","StopDescription":"N CORNELIA AVE & PRIVATE DR","StopLatitiude":36.796577,"StopLongtitude":-119.880453,"WheelchairBoarding":"0"}},{"type":"Feature","id":13838,"geometry":{"type":"Point","coordinates":[-119.879752999835,36.7935529998335]},"properties":{"ObjectID":13838,"StopID":"314","StopCode":"314","StopName":"SE ASHLAN - CORNELIA","StopDescription":"W ASHLAN AVE & N CORNELIA AVE","StopLatitiude":36.793553,"StopLongtitude":-119.879753,"WheelchairBoarding":"0"}},{"type":"Feature","id":13839,"geometry":{"type":"Point","coordinates":[-119.870625000025,36.7935889998823]},"properties":{"ObjectID":13839,"StopID":"315","StopCode":"315","StopName":"SE ASHLAN - BLYTHE","StopDescription":"W ASHLAN AVE & N 99 HWY","StopLatitiude":36.793589,"StopLongtitude":-119.870625,"WheelchairBoarding":"0"}},{"type":"Feature","id":13840,"geometry":{"type":"Point","coordinates":[-119.866948000351,36.7933100003556]},"properties":{"ObjectID":13840,"StopID":"316","StopCode":"316","StopName":"SW PARKWAY - ASHLAN","StopDescription":"N PARKWAY DR & N 99 HWY","StopLatitiude":36.79331,"StopLongtitude":-119.866948,"WheelchairBoarding":"0"}},{"type":"Feature","id":13841,"geometry":{"type":"Point","coordinates":[-119.862332999619,36.7895430003105]},"properties":{"ObjectID":13841,"StopID":"317","StopCode":"317","StopName":"SW BRAWLEY - GRIFFITH","StopDescription":"N BRAWLEY AVE & W SAGINAW WAY","StopLatitiude":36.789543,"StopLongtitude":-119.862333,"WheelchairBoarding":"0"}},{"type":"Feature","id":13842,"geometry":{"type":"Point","coordinates":[-119.862336000133,36.7869369997746]},"properties":{"ObjectID":13842,"StopID":"318","StopCode":"318","StopName":"NW BRAWLEY - DAKOTA","StopDescription":"N BRAWLEY AVE & W DAKOTA AVE","StopLatitiude":36.786937,"StopLongtitude":-119.862336,"WheelchairBoarding":"0"}},{"type":"Feature","id":13843,"geometry":{"type":"Point","coordinates":[-119.862325000537,36.783250000253]},"properties":{"ObjectID":13843,"StopID":"319","StopCode":"319","StopName":"NW BRAWLEY - DAYTON","StopDescription":"N BRAWLEY AVE & W DAYTON AVE","StopLatitiude":36.78325,"StopLongtitude":-119.862325,"WheelchairBoarding":"0"}},{"type":"Feature","id":13844,"geometry":{"type":"Point","coordinates":[-119.862310999514,36.7747169998308]},"properties":{"ObjectID":13844,"StopID":"320","StopCode":"320","StopName":"SW BRAWLEY - PRINCETON","StopDescription":"N BRAWLEY AVE & W BROWN AVE","StopLatitiude":36.774717,"StopLongtitude":-119.862311,"WheelchairBoarding":"0"}},{"type":"Feature","id":13845,"geometry":{"type":"Point","coordinates":[-119.727514000236,36.7353079998375]},"properties":{"ObjectID":13845,"StopID":"337","StopCode":"337","StopName":"SW WILLOW - KINGS CANYON","StopDescription":null,"StopLatitiude":36.735308,"StopLongtitude":-119.727514,"WheelchairBoarding":"0"}},{"type":"Feature","id":13846,"geometry":{"type":"Point","coordinates":[-119.727336999462,36.7353199996525]},"properties":{"ObjectID":13846,"StopID":"338","StopCode":"338","StopName":"SE WILLOW - KINGS CANYON","StopDescription":null,"StopLatitiude":36.73532,"StopLongtitude":-119.727337,"WheelchairBoarding":"0"}},{"type":"Feature","id":13847,"geometry":{"type":"Point","coordinates":[-119.862486000145,36.8113950003757]},"properties":{"ObjectID":13847,"StopID":"342","StopCode":"342","StopName":"SE BRAWLEY - SAN JOSE","StopDescription":null,"StopLatitiude":36.811395,"StopLongtitude":-119.862486,"WheelchairBoarding":"0"}},{"type":"Feature","id":13848,"geometry":{"type":"Point","coordinates":[-119.858729999866,36.8117560002972]},"properties":{"ObjectID":13848,"StopID":"343","StopCode":"343","StopName":"SW SAN JOSE - MARTY","StopDescription":null,"StopLatitiude":36.811756,"StopLongtitude":-119.85873,"WheelchairBoarding":"0"}},{"type":"Feature","id":13849,"geometry":{"type":"Point","coordinates":[-119.853941999834,36.8117650003919]},"properties":{"ObjectID":13849,"StopID":"344","StopCode":"344","StopName":"SW SAN JOSE - VALENTINE","StopDescription":null,"StopLatitiude":36.811765,"StopLongtitude":-119.853942,"WheelchairBoarding":"0"}},{"type":"Feature","id":13850,"geometry":{"type":"Point","coordinates":[-119.853111000503,36.8082419998503]},"properties":{"ObjectID":13850,"StopID":"345","StopCode":"345","StopName":"SE SHAW - VALENTINE","StopDescription":"W SHAW AVE & N FELAND AVE","StopLatitiude":36.808242,"StopLongtitude":-119.853111,"WheelchairBoarding":"0"}},{"type":"Feature","id":13851,"geometry":{"type":"Point","coordinates":[-119.849909000193,36.8082470003263]},"properties":{"ObjectID":13851,"StopID":"346","StopCode":"346","StopName":"SW SHAW - FELAND","StopDescription":"W SHAW AVE & N VALENTINE AVE","StopLatitiude":36.808247,"StopLongtitude":-119.849909,"WheelchairBoarding":"0"}},{"type":"Feature","id":13852,"geometry":{"type":"Point","coordinates":[-119.84450099997,36.8037989995544]},"properties":{"ObjectID":13852,"StopID":"347","StopCode":"347","StopName":"NW MARKS - SAN GABRIEL","StopDescription":null,"StopLatitiude":36.803799,"StopLongtitude":-119.844501,"WheelchairBoarding":"0"}},{"type":"Feature","id":13853,"geometry":{"type":"Point","coordinates":[-119.843964999616,36.8009449999996]},"properties":{"ObjectID":13853,"StopID":"348","StopCode":"348","StopName":"SE EMERSON - MARKS","StopDescription":null,"StopLatitiude":36.800945,"StopLongtitude":-119.843965,"WheelchairBoarding":"0"}},{"type":"Feature","id":13854,"geometry":{"type":"Point","coordinates":[-119.840323000433,36.8001939999819]},"properties":{"ObjectID":13854,"StopID":"349","StopCode":"349","StopName":"SW EMERSON - PLEASANT","StopDescription":null,"StopLatitiude":36.800194,"StopLongtitude":-119.840323,"WheelchairBoarding":"0"}},{"type":"Feature","id":13855,"geometry":{"type":"Point","coordinates":[-119.837259000413,36.7987999998882]},"properties":{"ObjectID":13855,"StopID":"350","StopCode":"350","StopName":"SE EMERSON - KAVANAUGH","StopDescription":null,"StopLatitiude":36.7988,"StopLongtitude":-119.837259,"WheelchairBoarding":"0"}},{"type":"Feature","id":13856,"geometry":{"type":"Point","coordinates":[-119.835491000241,36.7956519997738]},"properties":{"ObjectID":13856,"StopID":"351","StopCode":"351","StopName":"4323 N HUGHES SOUTHBOUND","StopDescription":null,"StopLatitiude":36.795652,"StopLongtitude":-119.835491,"WheelchairBoarding":"0"}},{"type":"Feature","id":13857,"geometry":{"type":"Point","coordinates":[-119.835457999748,36.7935449997703]},"properties":{"ObjectID":13857,"StopID":"352","StopCode":"352","StopName":"SW HUGHES - ASHLAN","StopDescription":null,"StopLatitiude":36.793545,"StopLongtitude":-119.835458,"WheelchairBoarding":"0"}},{"type":"Feature","id":13858,"geometry":{"type":"Point","coordinates":[-119.83547399989,36.7916039999681]},"properties":{"ObjectID":13858,"StopID":"353","StopCode":"353","StopName":"SW HUGHES - BELLAIRE","StopDescription":null,"StopLatitiude":36.791604,"StopLongtitude":-119.835474,"WheelchairBoarding":"0"}},{"type":"Feature","id":13859,"geometry":{"type":"Point","coordinates":[-119.835490999469,36.7904920000521]},"properties":{"ObjectID":13859,"StopID":"354","StopCode":"354","StopName":"NW HUGHES - GRIFFITH","StopDescription":null,"StopLatitiude":36.790492,"StopLongtitude":-119.835491,"WheelchairBoarding":"0"}},{"type":"Feature","id":13860,"geometry":{"type":"Point","coordinates":[-119.835557000081,36.7871100001209]},"properties":{"ObjectID":13860,"StopID":"356","StopCode":"356","StopName":"NW HUGHES - DAKOTA","StopDescription":null,"StopLatitiude":36.78711,"StopLongtitude":-119.835557,"WheelchairBoarding":"0"}},{"type":"Feature","id":13861,"geometry":{"type":"Point","coordinates":[-119.835569999718,36.7823329997922]},"properties":{"ObjectID":13861,"StopID":"357","StopCode":"357","StopName":"NW HUGHES - LORNA","StopDescription":null,"StopLatitiude":36.782333,"StopLongtitude":-119.83557,"WheelchairBoarding":"0"}},{"type":"Feature","id":13862,"geometry":{"type":"Point","coordinates":[-119.835621999471,36.7768209996436]},"properties":{"ObjectID":13862,"StopID":"359","StopCode":"359","StopName":"SW HUGHES - MICHIGAN","StopDescription":null,"StopLatitiude":36.776821,"StopLongtitude":-119.835622,"WheelchairBoarding":"0"}},{"type":"Feature","id":13863,"geometry":{"type":"Point","coordinates":[-119.83561799979,36.7745820000528]},"properties":{"ObjectID":13863,"StopID":"360","StopCode":"360","StopName":"NW HUGHES - BROWN","StopDescription":null,"StopLatitiude":36.774582,"StopLongtitude":-119.835618,"WheelchairBoarding":"0"}},{"type":"Feature","id":13864,"geometry":{"type":"Point","coordinates":[-119.826814000168,36.7690919996441]},"properties":{"ObjectID":13864,"StopID":"361","StopCode":"361","StopName":"SW WEST - CAMBRIDGE","StopDescription":null,"StopLatitiude":36.769092,"StopLongtitude":-119.826814,"WheelchairBoarding":"0"}},{"type":"Feature","id":13865,"geometry":{"type":"Point","coordinates":[-119.821723000142,36.7646929998301]},"properties":{"ObjectID":13865,"StopID":"362","StopCode":"362","StopName":"SE McKINLEY - TEILMAN","StopDescription":null,"StopLatitiude":36.764693,"StopLongtitude":-119.821723,"WheelchairBoarding":"0"}},{"type":"Feature","id":13866,"geometry":{"type":"Point","coordinates":[-119.817400000483,36.7647110000541]},"properties":{"ObjectID":13866,"StopID":"364","StopCode":"364","StopName":"SE McKINLEY - FRUIT","StopDescription":null,"StopLatitiude":36.764711,"StopLongtitude":-119.8174,"WheelchairBoarding":"0"}},{"type":"Feature","id":13867,"geometry":{"type":"Point","coordinates":[-119.798813999515,36.7649230000521]},"properties":{"ObjectID":13867,"StopID":"365","StopCode":"365","StopName":"SE McKINLEY - VAN NESS","StopDescription":null,"StopLatitiude":36.764923,"StopLongtitude":-119.798814,"WheelchairBoarding":"0"}},{"type":"Feature","id":13868,"geometry":{"type":"Point","coordinates":[-119.794875000026,36.7649610001339]},"properties":{"ObjectID":13868,"StopID":"366","StopCode":"366","StopName":"SW McKINLEY - SAN PABLO","StopDescription":null,"StopLatitiude":36.764961,"StopLongtitude":-119.794875,"WheelchairBoarding":"0"}},{"type":"Feature","id":13869,"geometry":{"type":"Point","coordinates":[-119.792342000034,36.7407779999734]},"properties":{"ObjectID":13869,"StopID":"372","StopCode":"372","StopName":"SW M ST - STANISLAUS","StopDescription":null,"StopLatitiude":36.740778,"StopLongtitude":-119.792342,"WheelchairBoarding":"0"}},{"type":"Feature","id":13870,"geometry":{"type":"Point","coordinates":[-119.789397999771,36.7433130002009]},"properties":{"ObjectID":13870,"StopID":"374","StopCode":"374","StopName":"DIVISADERO STATION","StopDescription":"N ABBY ST & E DIVISADERO ST","StopLatitiude":36.743313,"StopLongtitude":-119.789398,"WheelchairBoarding":"0"}},{"type":"Feature","id":13871,"geometry":{"type":"Point","coordinates":[-119.789333000173,36.7498710000853]},"properties":{"ObjectID":13871,"StopID":"376","StopCode":"376","StopName":"BELMONT STATION","StopDescription":null,"StopLatitiude":36.749871,"StopLongtitude":-119.789333,"WheelchairBoarding":"0"}},{"type":"Feature","id":13872,"geometry":{"type":"Point","coordinates":[-119.789178999738,36.7575100004167]},"properties":{"ObjectID":13872,"StopID":"377","StopCode":"377","StopName":"OLIVE STATION","StopDescription":null,"StopLatitiude":36.75751,"StopLongtitude":-119.789179,"WheelchairBoarding":"0"}},{"type":"Feature","id":13873,"geometry":{"type":"Point","coordinates":[-119.797310000154,36.7651309996076]},"properties":{"ObjectID":13873,"StopID":"380","StopCode":"380","StopName":"NW McKINLEY - POPLAR","StopDescription":null,"StopLatitiude":36.765131,"StopLongtitude":-119.79731,"WheelchairBoarding":"0"}},{"type":"Feature","id":13874,"geometry":{"type":"Point","coordinates":[-119.801602000376,36.7650419997166]},"properties":{"ObjectID":13874,"StopID":"381","StopCode":"381","StopName":"NW McKINLEY - WISHON","StopDescription":null,"StopLatitiude":36.765042,"StopLongtitude":-119.801602,"WheelchairBoarding":"0"}},{"type":"Feature","id":13875,"geometry":{"type":"Point","coordinates":[-119.811297000024,36.7649540000083]},"properties":{"ObjectID":13875,"StopID":"382","StopCode":"382","StopName":"NW McKINLEY - HARRISON","StopDescription":null,"StopLatitiude":36.764954,"StopLongtitude":-119.811297,"WheelchairBoarding":"0"}},{"type":"Feature","id":13876,"geometry":{"type":"Point","coordinates":[-119.813044999473,36.7649129995635]},"properties":{"ObjectID":13876,"StopID":"383","StopCode":"383","StopName":"NE McKINLEY - THORNE","StopDescription":null,"StopLatitiude":36.764913,"StopLongtitude":-119.813045,"WheelchairBoarding":"0"}},{"type":"Feature","id":13877,"geometry":{"type":"Point","coordinates":[-119.82202999965,36.764852999647]},"properties":{"ObjectID":13877,"StopID":"384","StopCode":"384","StopName":"NE McKINLEY - TIELMAN","StopDescription":null,"StopLatitiude":36.764853,"StopLongtitude":-119.82203,"WheelchairBoarding":"0"}},{"type":"Feature","id":13878,"geometry":{"type":"Point","coordinates":[-119.827097999998,36.7647960003052]},"properties":{"ObjectID":13878,"StopID":"385","StopCode":"385","StopName":"NW McKINLEY - WEST","StopDescription":null,"StopLatitiude":36.764796,"StopLongtitude":-119.827098,"WheelchairBoarding":"0"}},{"type":"Feature","id":13879,"geometry":{"type":"Point","coordinates":[-119.833066999892,36.7688019998382]},"properties":{"ObjectID":13879,"StopID":"387","StopCode":"387","StopName":"2020 N WEBER NB","StopDescription":null,"StopLatitiude":36.768802,"StopLongtitude":-119.833067,"WheelchairBoarding":"0"}},{"type":"Feature","id":13880,"geometry":{"type":"Point","coordinates":[-119.834470999589,36.7724140003523]},"properties":{"ObjectID":13880,"StopID":"388","StopCode":"388","StopName":"NE WEBER - CLINTON","StopDescription":null,"StopLatitiude":36.772414,"StopLongtitude":-119.834471,"WheelchairBoarding":"0"}},{"type":"Feature","id":13881,"geometry":{"type":"Point","coordinates":[-119.835405999745,36.7747190001037]},"properties":{"ObjectID":13881,"StopID":"389","StopCode":"389","StopName":"NE HUGHES - BROWN","StopDescription":null,"StopLatitiude":36.774719,"StopLongtitude":-119.835406,"WheelchairBoarding":"0"}},{"type":"Feature","id":13882,"geometry":{"type":"Point","coordinates":[-119.835392999583,36.777076000112]},"properties":{"ObjectID":13882,"StopID":"390","StopCode":"390","StopName":"SE HUGHES - CORNELL","StopDescription":null,"StopLatitiude":36.777076,"StopLongtitude":-119.835393,"WheelchairBoarding":"0"}},{"type":"Feature","id":13883,"geometry":{"type":"Point","coordinates":[-119.83538299999,36.7847859998623]},"properties":{"ObjectID":13883,"StopID":"393","StopCode":"393","StopName":"NE HUGHES - GARLAND","StopDescription":null,"StopLatitiude":36.784786,"StopLongtitude":-119.835383,"WheelchairBoarding":"0"}},{"type":"Feature","id":13884,"geometry":{"type":"Point","coordinates":[-119.835363999816,36.7868239997256]},"properties":{"ObjectID":13884,"StopID":"394","StopCode":"394","StopName":"NE HUGHES - DAKOTA","StopDescription":null,"StopLatitiude":36.786824,"StopLongtitude":-119.835364,"WheelchairBoarding":"0"}},{"type":"Feature","id":13885,"geometry":{"type":"Point","coordinates":[-119.835316000347,36.7902810003568]},"properties":{"ObjectID":13885,"StopID":"396","StopCode":"396","StopName":"NE HUGHES - GRIFFITH","StopDescription":null,"StopLatitiude":36.790281,"StopLongtitude":-119.835316,"WheelchairBoarding":"0"}},{"type":"Feature","id":13886,"geometry":{"type":"Point","coordinates":[-119.835303999579,36.7921000000856]},"properties":{"ObjectID":13886,"StopID":"397","StopCode":"397","StopName":"SE HUGHES - HAMPTON","StopDescription":null,"StopLatitiude":36.7921,"StopLongtitude":-119.835304,"WheelchairBoarding":"0"}},{"type":"Feature","id":13887,"geometry":{"type":"Point","coordinates":[-119.83529699957,36.7940269996491]},"properties":{"ObjectID":13887,"StopID":"398","StopCode":"398","StopName":"NE HUGHES - ASHLAN","StopDescription":null,"StopLatitiude":36.794027,"StopLongtitude":-119.835297,"WheelchairBoarding":"0"}},{"type":"Feature","id":13888,"geometry":{"type":"Point","coordinates":[-119.834693000268,36.7979549995726]},"properties":{"ObjectID":13888,"StopID":"399","StopCode":"399","StopName":"NE HUGHES - EMERSON","StopDescription":null,"StopLatitiude":36.797955,"StopLongtitude":-119.834693,"WheelchairBoarding":"0"}},{"type":"Feature","id":13889,"geometry":{"type":"Point","coordinates":[-119.837660999565,36.7992339997601]},"properties":{"ObjectID":13889,"StopID":"400","StopCode":"400","StopName":"NW EMERSON - KAVANAUGH","StopDescription":null,"StopLatitiude":36.799234,"StopLongtitude":-119.837661,"WheelchairBoarding":"0"}},{"type":"Feature","id":13890,"geometry":{"type":"Point","coordinates":[-119.840063000087,36.8003650000375]},"properties":{"ObjectID":13890,"StopID":"401","StopCode":"401","StopName":"NW EMERSON - PLEASANT","StopDescription":null,"StopLatitiude":36.800365,"StopLongtitude":-119.840063,"WheelchairBoarding":"0"}},{"type":"Feature","id":13891,"geometry":{"type":"Point","coordinates":[-119.844239000371,36.8015270000151]},"properties":{"ObjectID":13891,"StopID":"402","StopCode":"402","StopName":"NE MARKS - EMERSON","StopDescription":null,"StopLatitiude":36.801527,"StopLongtitude":-119.844239,"WheelchairBoarding":"0"}},{"type":"Feature","id":13892,"geometry":{"type":"Point","coordinates":[-119.844296000376,36.8049479996251]},"properties":{"ObjectID":13892,"StopID":"403","StopCode":"403","StopName":"NE MARKS - SANTA ANA","StopDescription":null,"StopLatitiude":36.804948,"StopLongtitude":-119.844296,"WheelchairBoarding":"0"}},{"type":"Feature","id":13893,"geometry":{"type":"Point","coordinates":[-119.844306000186,36.8063339996445]},"properties":{"ObjectID":13893,"StopID":"404","StopCode":"404","StopName":"SE MARKS - FAIRMONT","StopDescription":null,"StopLatitiude":36.806334,"StopLongtitude":-119.844306,"WheelchairBoarding":"0"}},{"type":"Feature","id":13894,"geometry":{"type":"Point","coordinates":[-119.845090000004,36.8082560001923]},"properties":{"ObjectID":13894,"StopID":"405","StopCode":"405","StopName":"NW SHAW - MARKS","StopDescription":"W SHAW AVE & N MARKS AVE","StopLatitiude":36.808256,"StopLongtitude":-119.84509,"WheelchairBoarding":"0"}},{"type":"Feature","id":13895,"geometry":{"type":"Point","coordinates":[-119.849808000012,36.8083010004118]},"properties":{"ObjectID":13895,"StopID":"406","StopCode":"406","StopName":"NW SHAW - FELAND","StopDescription":"W SHAW AVE & N VALENTINE AVE","StopLatitiude":36.808301,"StopLongtitude":-119.849808,"WheelchairBoarding":"0"}},{"type":"Feature","id":13896,"geometry":{"type":"Point","coordinates":[-119.853915000008,36.8082849999039]},"properties":{"ObjectID":13896,"StopID":"407","StopCode":"407","StopName":"NW SHAW - VALENTINE","StopDescription":"W SHAW AVE & PRIVATE DR","StopLatitiude":36.808285,"StopLongtitude":-119.853915,"WheelchairBoarding":"0"}},{"type":"Feature","id":13897,"geometry":{"type":"Point","coordinates":[-119.858484999717,36.8082139997186]},"properties":{"ObjectID":13897,"StopID":"408","StopCode":"408","StopName":"NW SHAW - MARTY","StopDescription":"W SHAW AVE & N MARTY AVE","StopLatitiude":36.808214,"StopLongtitude":-119.858485,"WheelchairBoarding":"0"}},{"type":"Feature","id":13898,"geometry":{"type":"Point","coordinates":[-119.862570999867,36.808662000343]},"properties":{"ObjectID":13898,"StopID":"409","StopCode":"409","StopName":"NE BRAWLEY - SHAW","StopDescription":"N BRAWLEY AVE & W SAN JOSE AVE","StopLatitiude":36.808662,"StopLongtitude":-119.862571,"WheelchairBoarding":"0"}},{"type":"Feature","id":13899,"geometry":{"type":"Point","coordinates":[-119.700070000313,36.7374379997058]},"properties":{"ObjectID":13899,"StopID":"412","StopCode":"412","StopName":"SE CLOVIS - INYO","StopDescription":"S CLOVIS AVE & E INYO ST","StopLatitiude":36.737438,"StopLongtitude":-119.70007,"WheelchairBoarding":"0"}},{"type":"Feature","id":13900,"geometry":{"type":"Point","coordinates":[-119.700083999769,36.7402950001258]},"properties":{"ObjectID":13900,"StopID":"413","StopCode":"413","StopName":"NE CLOVIS - HUNTINGTON","StopDescription":"S CLOVIS AVE & E INYO ST","StopLatitiude":36.740295,"StopLongtitude":-119.700084,"WheelchairBoarding":"0"}},{"type":"Feature","id":13901,"geometry":{"type":"Point","coordinates":[-119.700752999484,36.7432129999876]},"properties":{"ObjectID":13901,"StopID":"414","StopCode":"414","StopName":"NW TULARE - CLOVIS","StopDescription":"E TULARE ST & N CLOVIS AVE","StopLatitiude":36.743213,"StopLongtitude":-119.700753,"WheelchairBoarding":"0"}},{"type":"Feature","id":13902,"geometry":{"type":"Point","coordinates":[-119.704302000259,36.7431840002968]},"properties":{"ObjectID":13902,"StopID":"416","StopCode":"416","StopName":"NW TULARE - DEWITT","StopDescription":"E TULARE ST & N DEWITT AVE","StopLatitiude":36.743184,"StopLongtitude":-119.704302,"WheelchairBoarding":"0"}},{"type":"Feature","id":13903,"geometry":{"type":"Point","coordinates":[-119.709478999971,36.7431820004321]},"properties":{"ObjectID":13903,"StopID":"417","StopCode":"417","StopName":"NW TULARE - MINNEWAWA","StopDescription":"E TULARE ST & S LIND AVE","StopLatitiude":36.743182,"StopLongtitude":-119.709479,"WheelchairBoarding":"0"}},{"type":"Feature","id":13904,"geometry":{"type":"Point","coordinates":[-119.713436000554,36.7431879997602]},"properties":{"ObjectID":13904,"StopID":"418","StopCode":"418","StopName":"NE TULARE - VILLA","StopDescription":"E TULARE ST & N VILLA AVE","StopLatitiude":36.743188,"StopLongtitude":-119.713436,"WheelchairBoarding":"0"}},{"type":"Feature","id":13905,"geometry":{"type":"Point","coordinates":[-119.723111999532,36.7432080001944]},"properties":{"ObjectID":13905,"StopID":"420","StopCode":"420","StopName":"NW TULARE - HELM","StopDescription":"E TULARE ST & PRIVATE DR","StopLatitiude":36.743208,"StopLongtitude":-119.723112,"WheelchairBoarding":"0"}},{"type":"Feature","id":13906,"geometry":{"type":"Point","coordinates":[-119.72764400052,36.7432739999195]},"properties":{"ObjectID":13906,"StopID":"421","StopCode":"421","StopName":"NW TULARE - WILLOW","StopDescription":null,"StopLatitiude":36.743274,"StopLongtitude":-119.727644,"WheelchairBoarding":"0"}},{"type":"Feature","id":13907,"geometry":{"type":"Point","coordinates":[-119.731727999568,36.743278000063]},"properties":{"ObjectID":13907,"StopID":"422","StopCode":"422","StopName":"NE TULARE - WINERY","StopDescription":null,"StopLatitiude":36.743278,"StopLongtitude":-119.731728,"WheelchairBoarding":"0"}},{"type":"Feature","id":13908,"geometry":{"type":"Point","coordinates":[-119.73739699968,36.7432869996732]},"properties":{"ObjectID":13908,"StopID":"424","StopCode":"424","StopName":"NE TULARE - DEARING","StopDescription":null,"StopLatitiude":36.743287,"StopLongtitude":-119.737397,"WheelchairBoarding":"0"}},{"type":"Feature","id":13909,"geometry":{"type":"Point","coordinates":[-119.740638000117,36.7432900000359]},"properties":{"ObjectID":13909,"StopID":"425","StopCode":"425","StopName":"NE TULARE - SIERRA VISTA","StopDescription":null,"StopLatitiude":36.74329,"StopLongtitude":-119.740638,"WheelchairBoarding":"0"}},{"type":"Feature","id":13910,"geometry":{"type":"Point","coordinates":[-119.745781999889,36.7432890002625]},"properties":{"ObjectID":13910,"StopID":"427","StopCode":"427","StopName":"NW TULARE - MAPLE","StopDescription":null,"StopLatitiude":36.743289,"StopLongtitude":-119.745782,"WheelchairBoarding":"0"}},{"type":"Feature","id":13911,"geometry":{"type":"Point","coordinates":[-119.749675999881,36.7432520001686]},"properties":{"ObjectID":13911,"StopID":"428","StopCode":"428","StopName":"NE TULARE - BARTON","StopDescription":null,"StopLatitiude":36.743252,"StopLongtitude":-119.749676,"WheelchairBoarding":"0"}},{"type":"Feature","id":13912,"geometry":{"type":"Point","coordinates":[-119.754966000484,36.7432439997137]},"properties":{"ObjectID":13912,"StopID":"429","StopCode":"429","StopName":"NW TULARE - CEDAR","StopDescription":"E TULARE ST & S CEDAR AVE","StopLatitiude":36.743244,"StopLongtitude":-119.754966,"WheelchairBoarding":"0"}},{"type":"Feature","id":13913,"geometry":{"type":"Point","coordinates":[-119.758696000075,36.7432139997339]},"properties":{"ObjectID":13913,"StopID":"430","StopCode":"430","StopName":"NW TULARE - TENTH","StopDescription":"E TULARE ST & S TENTH ST","StopLatitiude":36.743214,"StopLongtitude":-119.758696,"WheelchairBoarding":"0"}},{"type":"Feature","id":13914,"geometry":{"type":"Point","coordinates":[-119.764075000305,36.7432859998358]},"properties":{"ObjectID":13914,"StopID":"432","StopCode":"432","StopName":"NE TULARE - SIXTH","StopDescription":null,"StopLatitiude":36.743286,"StopLongtitude":-119.764075,"WheelchairBoarding":"0"}},{"type":"Feature","id":13915,"geometry":{"type":"Point","coordinates":[-119.769545000023,36.7432730002871]},"properties":{"ObjectID":13915,"StopID":"433","StopCode":"433","StopName":"NW TULARE - THIRD","StopDescription":null,"StopLatitiude":36.743273,"StopLongtitude":-119.769545,"WheelchairBoarding":"0"}},{"type":"Feature","id":13916,"geometry":{"type":"Point","coordinates":[-119.77291899999,36.7433179997173]},"properties":{"ObjectID":13916,"StopID":"434","StopCode":"434","StopName":"NW TULARE - FIRST","StopDescription":null,"StopLatitiude":36.743318,"StopLongtitude":-119.772919,"WheelchairBoarding":"0"}},{"type":"Feature","id":13917,"geometry":{"type":"Point","coordinates":[-119.7787030001,36.7421719999918]},"properties":{"ObjectID":13917,"StopID":"435","StopCode":"435","StopName":"NW TULARE - U ST","StopDescription":null,"StopLatitiude":36.742172,"StopLongtitude":-119.778703,"WheelchairBoarding":"0"}},{"type":"Feature","id":13918,"geometry":{"type":"Point","coordinates":[-119.78128900027,36.7403310002392]},"properties":{"ObjectID":13918,"StopID":"436","StopCode":"436","StopName":"NW TULARE - S ST","StopDescription":null,"StopLatitiude":36.740331,"StopLongtitude":-119.781289,"WheelchairBoarding":"0"}},{"type":"Feature","id":13919,"geometry":{"type":"Point","coordinates":[-119.783316000126,36.7388749997061]},"properties":{"ObjectID":13919,"StopID":"437","StopCode":"437","StopName":"NW TULARE - Q ST","StopDescription":null,"StopLatitiude":36.738875,"StopLongtitude":-119.783316,"WheelchairBoarding":"0"}},{"type":"Feature","id":13920,"geometry":{"type":"Point","coordinates":[-119.78531699954,36.7374219998607]},"properties":{"ObjectID":13920,"StopID":"438","StopCode":"438","StopName":"NW TULARE - O ST","StopDescription":null,"StopLatitiude":36.737422,"StopLongtitude":-119.785317,"WheelchairBoarding":"0"}},{"type":"Feature","id":13921,"geometry":{"type":"Point","coordinates":[-119.793737000252,36.7389089999719]},"properties":{"ObjectID":13921,"StopID":"439","StopCode":"439","StopName":"NE VAN NESS - TUOLUMNE","StopDescription":null,"StopLatitiude":36.738909,"StopLongtitude":-119.793737,"WheelchairBoarding":"0"}},{"type":"Feature","id":13922,"geometry":{"type":"Point","coordinates":[-119.79437600021,36.7414449995869]},"properties":{"ObjectID":13922,"StopID":"440","StopCode":"440","StopName":"SE CALAVERAS - L ST","StopDescription":null,"StopLatitiude":36.741445,"StopLongtitude":-119.794376,"WheelchairBoarding":"0"}},{"type":"Feature","id":13923,"geometry":{"type":"Point","coordinates":[-119.793760000008,36.7422879998124]},"properties":{"ObjectID":13923,"StopID":"441","StopCode":"441","StopName":"NE M ST - CALAVERAS","StopDescription":null,"StopLatitiude":36.742288,"StopLongtitude":-119.79376,"WheelchairBoarding":"0"}},{"type":"Feature","id":13924,"geometry":{"type":"Point","coordinates":[-119.794615999792,36.7441080003655]},"properties":{"ObjectID":13924,"StopID":"442","StopCode":"442","StopName":"NE SAN PABLO - VOORMAN","StopDescription":null,"StopLatitiude":36.744108,"StopLongtitude":-119.794616,"WheelchairBoarding":"0"}},{"type":"Feature","id":13925,"geometry":{"type":"Point","coordinates":[-119.79463799991,36.7471429997304]},"properties":{"ObjectID":13925,"StopID":"443","StopCode":"443","StopName":"NE SAN PABLO - McKENZIE","StopDescription":null,"StopLatitiude":36.747143,"StopLongtitude":-119.794638,"WheelchairBoarding":"0"}},{"type":"Feature","id":13926,"geometry":{"type":"Point","coordinates":[-119.795025000056,36.7511259996635]},"properties":{"ObjectID":13926,"StopID":"444","StopCode":"444","StopName":"NE SAN PABLO - BELMONT","StopDescription":null,"StopLatitiude":36.751126,"StopLongtitude":-119.795025,"WheelchairBoarding":"0"}},{"type":"Feature","id":13927,"geometry":{"type":"Point","coordinates":[-119.795025999665,36.7533840002174]},"properties":{"ObjectID":13927,"StopID":"445","StopCode":"445","StopName":"NE SAN PABLO - TED C. WILLS","StopDescription":"N SAN PABLO AVE & E THOMAS AVE","StopLatitiude":36.753384,"StopLongtitude":-119.79502599999999,"WheelchairBoarding":"0"}},{"type":"Feature","id":13928,"geometry":{"type":"Point","coordinates":[-119.794974999876,36.7560789998577]},"properties":{"ObjectID":13928,"StopID":"447","StopCode":"447","StopName":"NE SAN PABLO - PATTERSON","StopDescription":"N SAN PABLO AVE & E ALHAMBRA AVE","StopLatitiude":36.756079,"StopLongtitude":-119.794975,"WheelchairBoarding":"0"}},{"type":"Feature","id":13929,"geometry":{"type":"Point","coordinates":[-119.795954000258,36.7577359999686]},"properties":{"ObjectID":13929,"StopID":"448","StopCode":"448","StopName":"NW OLIVE - DEL MAR","StopDescription":null,"StopLatitiude":36.757736,"StopLongtitude":-119.795954,"WheelchairBoarding":"0"}},{"type":"Feature","id":13930,"geometry":{"type":"Point","coordinates":[-119.804834999849,36.7577199999033]},"properties":{"ObjectID":13930,"StopID":"450","StopCode":"450","StopName":"NW OLIVE - ECHO","StopDescription":null,"StopLatitiude":36.75772,"StopLongtitude":-119.804835,"WheelchairBoarding":"0"}},{"type":"Feature","id":13931,"geometry":{"type":"Point","coordinates":[-119.806645000491,36.7576969998763]},"properties":{"ObjectID":13931,"StopID":"451","StopCode":"451","StopName":"NE OLIVE - WILSON","StopDescription":null,"StopLatitiude":36.757697,"StopLongtitude":-119.806645,"WheelchairBoarding":"0"}},{"type":"Feature","id":13932,"geometry":{"type":"Point","coordinates":[-119.814449000142,36.7576750000788]},"properties":{"ObjectID":13932,"StopID":"453","StopCode":"453","StopName":"NW OLIVE - ADOLINE","StopDescription":null,"StopLatitiude":36.757675,"StopLongtitude":-119.814449,"WheelchairBoarding":"0"}},{"type":"Feature","id":13933,"geometry":{"type":"Point","coordinates":[-119.817572000211,36.7579560003661]},"properties":{"ObjectID":13933,"StopID":"454","StopCode":"454","StopName":"NE FRUIT - OLIVE","StopDescription":null,"StopLatitiude":36.757956,"StopLongtitude":-119.817572,"WheelchairBoarding":"0"}},{"type":"Feature","id":13934,"geometry":{"type":"Point","coordinates":[-119.817555000282,36.7613869996212]},"properties":{"ObjectID":13934,"StopID":"455","StopCode":"455","StopName":"NE FRUIT - FLORADORA","StopDescription":null,"StopLatitiude":36.761387,"StopLongtitude":-119.817555,"WheelchairBoarding":"0"}},{"type":"Feature","id":13935,"geometry":{"type":"Point","coordinates":[-119.817568999812,36.7631859996354]},"properties":{"ObjectID":13935,"StopID":"456","StopCode":"456","StopName":"NE FRUIT - HOME","StopDescription":null,"StopLatitiude":36.763186,"StopLongtitude":-119.817569,"WheelchairBoarding":"0"}},{"type":"Feature","id":13936,"geometry":{"type":"Point","coordinates":[-119.818594999764,36.7648909998215]},"properties":{"ObjectID":13936,"StopID":"457","StopCode":"457","StopName":"NW McKINLEY - FRUIT","StopDescription":null,"StopLatitiude":36.764891,"StopLongtitude":-119.818595,"WheelchairBoarding":"0"}},{"type":"Feature","id":13937,"geometry":{"type":"Point","coordinates":[-119.826599000044,36.7651829995818]},"properties":{"ObjectID":13937,"StopID":"458","StopCode":"458","StopName":"NE WEST - McKINLEY","StopDescription":null,"StopLatitiude":36.765183,"StopLongtitude":-119.826599,"WheelchairBoarding":"0"}},{"type":"Feature","id":13938,"geometry":{"type":"Point","coordinates":[-119.826571000198,36.7676430001339]},"properties":{"ObjectID":13938,"StopID":"459","StopCode":"459","StopName":"NE WEST - NORMAL","StopDescription":null,"StopLatitiude":36.767643,"StopLongtitude":-119.826571,"WheelchairBoarding":"0"}},{"type":"Feature","id":13939,"geometry":{"type":"Point","coordinates":[-119.826545000058,36.7695079997604]},"properties":{"ObjectID":13939,"StopID":"460","StopCode":"460","StopName":"NE WEST - CAMBRIDGE","StopDescription":null,"StopLatitiude":36.769508,"StopLongtitude":-119.826545,"WheelchairBoarding":"0"}},{"type":"Feature","id":13940,"geometry":{"type":"Point","coordinates":[-119.826521000079,36.7716470003792]},"properties":{"ObjectID":13940,"StopID":"461","StopCode":"461","StopName":"SE WEST - CLINTON","StopDescription":null,"StopLatitiude":36.771647,"StopLongtitude":-119.826521,"WheelchairBoarding":"0"}},{"type":"Feature","id":13941,"geometry":{"type":"Point","coordinates":[-119.826473999526,36.7763650000154]},"properties":{"ObjectID":13941,"StopID":"463","StopCode":"463","StopName":"SE WEST - MICHIGAN","StopDescription":null,"StopLatitiude":36.776365,"StopLongtitude":-119.826474,"WheelchairBoarding":"0"}},{"type":"Feature","id":13942,"geometry":{"type":"Point","coordinates":[-119.82642399996,36.7831740000635]},"properties":{"ObjectID":13942,"StopID":"467","StopCode":"467","StopName":"NE WEST - DAYTON","StopDescription":null,"StopLatitiude":36.783174,"StopLongtitude":-119.826424,"WheelchairBoarding":"0"}},{"type":"Feature","id":13943,"geometry":{"type":"Point","coordinates":[-119.826378999857,36.7868810002127]},"properties":{"ObjectID":13943,"StopID":"468","StopCode":"468","StopName":"NE WEST - DAKOTA","StopDescription":null,"StopLatitiude":36.786881,"StopLongtitude":-119.826379,"WheelchairBoarding":"0"}},{"type":"Feature","id":13944,"geometry":{"type":"Point","coordinates":[-119.826337999761,36.7904980004102]},"properties":{"ObjectID":13944,"StopID":"470","StopCode":"470","StopName":"NE WEST - GRIFFITH","StopDescription":null,"StopLatitiude":36.790498,"StopLongtitude":-119.826338,"WheelchairBoarding":"0"}},{"type":"Feature","id":13945,"geometry":{"type":"Point","coordinates":[-119.826320999749,36.7925199998599]},"properties":{"ObjectID":13945,"StopID":"471","StopCode":"471","StopName":"SE WEST - ASHLAN","StopDescription":null,"StopLatitiude":36.79252,"StopLongtitude":-119.826321,"WheelchairBoarding":"0"}},{"type":"Feature","id":13946,"geometry":{"type":"Point","coordinates":[-119.826305000177,36.7947660001048]},"properties":{"ObjectID":13946,"StopID":"472","StopCode":"472","StopName":"SE WEST - HOLLAND","StopDescription":null,"StopLatitiude":36.794766,"StopLongtitude":-119.826305,"WheelchairBoarding":"0"}},{"type":"Feature","id":13947,"geometry":{"type":"Point","coordinates":[-119.826290000336,36.7974889998779]},"properties":{"ObjectID":13947,"StopID":"473","StopCode":"473","StopName":"NE WEST - HOLT","StopDescription":null,"StopLatitiude":36.797489,"StopLongtitude":-119.82629,"WheelchairBoarding":"0"}},{"type":"Feature","id":13948,"geometry":{"type":"Point","coordinates":[-119.826300999499,36.8009070002238]},"properties":{"ObjectID":13948,"StopID":"474","StopCode":"474","StopName":"SE WEST - GETTYSBURG","StopDescription":null,"StopLatitiude":36.800907,"StopLongtitude":-119.826301,"WheelchairBoarding":"0"}},{"type":"Feature","id":13949,"geometry":{"type":"Point","coordinates":[-119.826268999699,36.8049150002508]},"properties":{"ObjectID":13949,"StopID":"476","StopCode":"476","StopName":"NE WEST - SANTA ANA","StopDescription":null,"StopLatitiude":36.804915,"StopLongtitude":-119.826269,"WheelchairBoarding":"0"}},{"type":"Feature","id":13950,"geometry":{"type":"Point","coordinates":[-119.826277000484,36.8133319998257]},"properties":{"ObjectID":13950,"StopID":"478","StopCode":"478","StopName":"SE WEST - SAN BRUNO","StopDescription":null,"StopLatitiude":36.813332,"StopLongtitude":-119.826277,"WheelchairBoarding":"0"}},{"type":"Feature","id":13951,"geometry":{"type":"Point","coordinates":[-119.827255000469,36.8156230001807]},"properties":{"ObjectID":13951,"StopID":"479","StopCode":"479","StopName":"NW BARSTOW - WEST","StopDescription":null,"StopLatitiude":36.815623,"StopLongtitude":-119.827255,"WheelchairBoarding":"0"}},{"type":"Feature","id":13952,"geometry":{"type":"Point","coordinates":[-119.830453999475,36.8155760000298]},"properties":{"ObjectID":13952,"StopID":"480","StopCode":"480","StopName":"NE BARSTOW - FORKNER","StopDescription":null,"StopLatitiude":36.815576,"StopLongtitude":-119.830454,"WheelchairBoarding":"0"}},{"type":"Feature","id":13953,"geometry":{"type":"Point","coordinates":[-119.835779999756,36.8155609995824]},"properties":{"ObjectID":13953,"StopID":"481","StopCode":"481","StopName":"NE BARSTOW - VAN NESS","StopDescription":null,"StopLatitiude":36.815561,"StopLongtitude":-119.83578,"WheelchairBoarding":"0"}},{"type":"Feature","id":13954,"geometry":{"type":"Point","coordinates":[-119.844282000041,36.8157110004512]},"properties":{"ObjectID":13954,"StopID":"482","StopCode":"482","StopName":"NE MARKS - BARSTOW","StopDescription":null,"StopLatitiude":36.815711,"StopLongtitude":-119.844282,"WheelchairBoarding":"0"}},{"type":"Feature","id":13955,"geometry":{"type":"Point","coordinates":[-119.844294000564,36.8188130001621]},"properties":{"ObjectID":13955,"StopID":"483","StopCode":"483","StopName":"SE MARKS - BROWNING","StopDescription":null,"StopLatitiude":36.818813,"StopLongtitude":-119.844294,"WheelchairBoarding":"0"}},{"type":"Feature","id":13956,"geometry":{"type":"Point","coordinates":[-119.843691999686,36.8226429996451]},"properties":{"ObjectID":13956,"StopID":"484","StopCode":"484","StopName":"SE BULLARD - MARKS","StopDescription":null,"StopLatitiude":36.822643,"StopLongtitude":-119.843692,"WheelchairBoarding":"0"}},{"type":"Feature","id":13957,"geometry":{"type":"Point","coordinates":[-119.839620999809,36.8226609999981]},"properties":{"ObjectID":13957,"StopID":"485","StopCode":"485","StopName":"SE BULLARD - PLEASANT","StopDescription":null,"StopLatitiude":36.822661,"StopLongtitude":-119.839621,"WheelchairBoarding":"0"}},{"type":"Feature","id":13958,"geometry":{"type":"Point","coordinates":[-119.835676999853,36.8226739998703]},"properties":{"ObjectID":13958,"StopID":"486","StopCode":"486","StopName":"SW BULLARD - VAN NESS","StopDescription":null,"StopLatitiude":36.822674,"StopLongtitude":-119.835677,"WheelchairBoarding":"0"}},{"type":"Feature","id":13959,"geometry":{"type":"Point","coordinates":[-119.830383999858,36.8226909996444]},"properties":{"ObjectID":13959,"StopID":"487","StopCode":"487","StopName":"SE BULLARD - FORKNER","StopDescription":null,"StopLatitiude":36.822691,"StopLongtitude":-119.830384,"WheelchairBoarding":"0"}},{"type":"Feature","id":13960,"geometry":{"type":"Point","coordinates":[-119.826508000156,36.818785000204]},"properties":{"ObjectID":13960,"StopID":"489","StopCode":"489","StopName":"SW WEST - BROWNING","StopDescription":null,"StopLatitiude":36.818785,"StopLongtitude":-119.826508,"WheelchairBoarding":"0"}},{"type":"Feature","id":13961,"geometry":{"type":"Point","coordinates":[-119.82652799977,36.8152400003054]},"properties":{"ObjectID":13961,"StopID":"490","StopCode":"490","StopName":"SW WEST - BARSTOW","StopDescription":null,"StopLatitiude":36.81524,"StopLongtitude":-119.826528,"WheelchairBoarding":"0"}},{"type":"Feature","id":13962,"geometry":{"type":"Point","coordinates":[-119.826499999864,36.8127580003145]},"properties":{"ObjectID":13962,"StopID":"491","StopCode":"491","StopName":"SW WEST - SAN BRUNO","StopDescription":null,"StopLatitiude":36.812758,"StopLongtitude":-119.8265,"WheelchairBoarding":"0"}},{"type":"Feature","id":13963,"geometry":{"type":"Point","coordinates":[-119.826528000073,36.8052969997658]},"properties":{"ObjectID":13963,"StopID":"493","StopCode":"493","StopName":"SW WEST - ALAMOS","StopDescription":null,"StopLatitiude":36.805297,"StopLongtitude":-119.826528,"WheelchairBoarding":"0"}},{"type":"Feature","id":13964,"geometry":{"type":"Point","coordinates":[-119.826534000171,36.7996400003828]},